     3.04           OBSERVATION DATA    M                   RINEX VERSION / TYPE
JPS2RIN v.2.1.223   JAVAD GNSS          20231124 001502 UTC PGM / RUN BY / DATE
DSN                 JPL                                     OBSERVER / AGENCY
MADR                                                        MARKER NAME
13407S012                                                   MARKER NUMBER
01326               JAVAD TRE_G3TH DELTA4.1.01              REC # / TYPE / VERS
  4849202.3940  -360328.9929  4114913.1862                  APPROX POSITION XYZ
451-U               AOAD/M_T        NONE                    ANT # / TYPE
        0.0254        0.0000        0.0000                  ANTENNA: DELTA H/E/N
G   18 C1C L1C S1C C1W L1W S1W C2X L2X S2X C2W L2W S2W C5X  SYS / # / OBS TYPES
       L5X S5X C1X L1X S1X                                  SYS / # / OBS TYPES
R   12 C1C L1C S1C C1P L1P S1P C2C L2C S2C C2P L2P S2P      SYS / # / OBS TYPES
E    9 C1X L1X S1X C7X L7X S7X C5X L5X S5X                  SYS / # / OBS TYPES
 25 R01  1 R02 -4 R03  5 R04  6 R05  1 R06 -4 R07  5 R08  6 GLONASS SLOT / FRQ #
    R09 -2 R10 -7 R11  0 R12 -1 R13 -2 R14 -7 R15  0 R16 -1 GLONASS SLOT / FRQ #
    R17  4 R18 -3 R19  3 R20  2 R21  4 R22 -3 R23  3 R24  2 GLONASS SLOT / FRQ #
    R25 -5                                                  GLONASS SLOT / FRQ #
 C1C    0.000 C1P    0.000 C2C    0.000 C2P    0.000        GLONASS COD/PHS/BIS
    30.000                                                  INTERVAL
  2023    11    23     0     0    0.0000000     GPS         TIME OF FIRST OBS
  2023    11    23    23    59   30.0000000     GPS         TIME OF LAST OBS
    18                                                      LEAP SECONDS
G L1C  0.00000  32 G01 G02 G03 G04 G05 G06 G07 G08 G09 G10  SYS / PHASE SHIFT
                   G11 G12 G13 G14 G15 G16 G17 G18 G19 G20  SYS / PHASE SHIFT
                   G21 G22 G23 G24 G25 G26 G27 G28 G29 G30  SYS / PHASE SHIFT
                   G31 G32                                  SYS / PHASE SHIFT
G L1W -0.25000  32 G01 G02 G03 G04 G05 G06 G07 G08 G09 G10  SYS / PHASE SHIFT
                   G11 G12 G13 G14 G15 G16 G17 G18 G19 G20  SYS / PHASE SHIFT
                   G21 G22 G23 G24 G25 G26 G27 G28 G29 G30  SYS / PHASE SHIFT
                   G31 G32                                  SYS / PHASE SHIFT
G L1X -0.25000  06 G01 G02 G03 G04 G18 G23                  SYS / PHASE SHIFT
G L2W  0.00000  32 G01 G02 G03 G04 G05 G06 G07 G08 G09 G10  SYS / PHASE SHIFT
                   G11 G12 G13 G14 G15 G16 G17 G18 G19 G20  SYS / PHASE SHIFT
                   G21 G22 G23 G24 G25 G26 G27 G28 G29 G30  SYS / PHASE SHIFT
                   G31 G32                                  SYS / PHASE SHIFT
G L2X  0.25000  25 G01 G03 G04 G05 G06 G07 G08 G09 G10 G11  SYS / PHASE SHIFT
                   G12 G14 G15 G17 G18 G23 G24 G25 G26 G27  SYS / PHASE SHIFT
                   G28 G29 G30 G31 G32                      SYS / PHASE SHIFT
G L5X  0.25000  18 G01 G03 G04 G06 G08 G09 G10 G11 G14 G18  SYS / PHASE SHIFT
                   G23 G24 G25 G26 G27 G28 G30 G32          SYS / PHASE SHIFT
R L1C  0.00000  25 R01 R02 R03 R04 R05 R06 R07 R08 R09 R10  SYS / PHASE SHIFT
                   R11 R12 R13 R14 R15 R16 R17 R18 R19 R20  SYS / PHASE SHIFT
                   R21 R22 R23 R24 R25                      SYS / PHASE SHIFT
R L1P -0.25000  25 R01 R02 R03 R04 R05 R06 R07 R08 R09 R10  SYS / PHASE SHIFT
                   R11 R12 R13 R14 R15 R16 R17 R18 R19 R20  SYS / PHASE SHIFT
                   R21 R22 R23 R24 R25                      SYS / PHASE SHIFT
R L2C  0.25000  25 R01 R02 R03 R04 R05 R06 R07 R08 R09 R10  SYS / PHASE SHIFT
                   R11 R12 R13 R14 R15 R16 R17 R18 R19 R20  SYS / PHASE SHIFT
                   R21 R22 R23 R24 R25                      SYS / PHASE SHIFT
R L2P  0.00000  24 R01 R02 R03 R04 R05 R06 R07 R08 R09 R10  SYS / PHASE SHIFT
                   R11 R12 R13 R14 R15 R16 R17 R18 R19 R20  SYS / PHASE SHIFT
                   R21 R22 R24 R25                          SYS / PHASE SHIFT
E L1X  0.50000  23 E02 E03 E04 E05 E07 E08 E09 E10 E11 E12  SYS / PHASE SHIFT
                   E13 E15 E19 E21 E24 E25 E26 E27 E30 E31  SYS / PHASE SHIFT
                   E33 E34 E36                              SYS / PHASE SHIFT
E L5X  0.25000  23 E02 E03 E04 E05 E07 E08 E09 E10 E11 E12  SYS / PHASE SHIFT
                   E13 E15 E19 E21 E24 E25 E26 E27 E30 E31  SYS / PHASE SHIFT
                   E33 E34 E36                              SYS / PHASE SHIFT
E L7X  0.25000  23 E02 E03 E04 E05 E07 E08 E09 E10 E11 E12  SYS / PHASE SHIFT
                   E13 E15 E19 E21 E24 E25 E26 E27 E30 E31  SYS / PHASE SHIFT
                   E33 E34 E36                              SYS / PHASE SHIFT
    80                                                      # OF SATELLITES
   G01   816   816   816   811   811   811   813   813   813PRN / # OF OBS
         811   811   811   811   811   811     0     0     0PRN / # OF OBS
   G02   850   850   850   827   827   827     0     0     0PRN / # OF OBS
         827   827   827     0     0     0     0     0     0PRN / # OF OBS
   G03   790   790   790   786   786   786   790   790   790PRN / # OF OBS
         786   786   786   785   785   785     0     0     0PRN / # OF OBS
   G04   738   738   738   723   723   723   738   738   738PRN / # OF OBS
         723   723   723   731   731   731   738   738   738PRN / # OF OBS
   G05   849   849   849   847   847   847   849   849   849PRN / # OF OBS
         847   847   847     0     0     0     0     0     0PRN / # OF OBS
   G06   833   833   833   829   829   829   833   833   833PRN / # OF OBS
         829   829   829   831   831   831     0     0     0PRN / # OF OBS
   G07   924   924   924   917   917   917   923   923   923PRN / # OF OBS
         917   917   917     0     0     0     0     0     0PRN / # OF OBS
   G08   804   804   804   804   804   804   804   804   804PRN / # OF OBS
         804   804   804   804   804   804     0     0     0PRN / # OF OBS
   G09   763   763   763   761   761   761   763   763   763PRN / # OF OBS
         761   761   761   763   763   763     0     0     0PRN / # OF OBS
   G10   978   978   978   927   927   927   975   975   975PRN / # OF OBS
         927   927   927   974   974   974     0     0     0PRN / # OF OBS
   G11   937   937   937   875   875   875   937   937   937PRN / # OF OBS
         875   875   875   929   929   929     0     0     0PRN / # OF OBS
   G12   802   802   802   788   788   788   801   801   801PRN / # OF OBS
         788   788   788     0     0     0     0     0     0PRN / # OF OBS
   G13   824   824   824   806   806   806     0     0     0PRN / # OF OBS
         806   806   806     0     0     0     0     0     0PRN / # OF OBS
   G14   981   981   981   958   958   958   981   981   981PRN / # OF OBS
         958   958   958   978   978   978     0     0     0PRN / # OF OBS
   G15   774   774   774   773   773   773   773   773   773PRN / # OF OBS
         773   773   773     0     0     0     0     0     0PRN / # OF OBS
   G16   779   779   779   759   759   759     0     0     0PRN / # OF OBS
         759   759   759     0     0     0     0     0     0PRN / # OF OBS
   G17   947   947   947   905   905   905   945   945   945PRN / # OF OBS
         905   905   905     0     0     0     0     0     0PRN / # OF OBS
   G18   901   901   901   888   888   888   901   901   901PRN / # OF OBS
         888   888   888   900   900   900   904   904   904PRN / # OF OBS
   G19   939   939   939   898   898   898     0     0     0PRN / # OF OBS
         898   898   898     0     0     0     0     0     0PRN / # OF OBS
   G20   783   783   783   749   749   749     0     0     0PRN / # OF OBS
         749   749   749     0     0     0     0     0     0PRN / # OF OBS
   G21   832   832   832   798   798   798     0     0     0PRN / # OF OBS
         798   798   798     0     0     0     0     0     0PRN / # OF OBS
   G22   970   970   970   883   883   883     0     0     0PRN / # OF OBS
         883   883   883     0     0     0     0     0     0PRN / # OF OBS
   G23   906   906   906   883   883   883   905   905   905PRN / # OF OBS
         883   883   883   901   901   901   906   906   906PRN / # OF OBS
   G24   786   786   786   785   785   785   785   785   785PRN / # OF OBS
         785   785   785   783   783   783     0     0     0PRN / # OF OBS
   G25   853   853   853   823   823   823   852   852   852PRN / # OF OBS
         823   823   823   847   847   847     0     0     0PRN / # OF OBS
   G26   797   797   797   796   796   796   796   796   796PRN / # OF OBS
         796   796   796   796   796   796     0     0     0PRN / # OF OBS
   G27   840   840   840   831   831   831   840   840   840PRN / # OF OBS
         831   831   831   835   835   835     0     0     0PRN / # OF OBS
   G28   842   842   842   807   807   807   838   838   838PRN / # OF OBS
         807   807   807   826   826   826     0     0     0PRN / # OF OBS
   G29   755   755   755   744   744   744   753   753   753PRN / # OF OBS
         744   744   744     0     0     0     0     0     0PRN / # OF OBS
   G30   740   740   740   740   740   740   740   740   740PRN / # OF OBS
         740   740   740   740   740   740     0     0     0PRN / # OF OBS
   G31   946   946   946   930   930   930   946   946   946PRN / # OF OBS
         930   930   930     0     0     0     0     0     0PRN / # OF OBS
   G32   983   983   983   945   945   945   981   981   981PRN / # OF OBS
         945   945   945   958   958   958     0     0     0PRN / # OF OBS
   R01   770   770   770   770   770   770   770   770   770PRN / # OF OBS
         758   758   758                                    PRN / # OF OBS
   R02   422   422   422   422   422   422   422   422   422PRN / # OF OBS
         422   422   422                                    PRN / # OF OBS
   R03   746   746   746   746   746   746   745   745   745PRN / # OF OBS
         743   743   743                                    PRN / # OF OBS
   R04   881   881   881   879   879   879   875   875   875PRN / # OF OBS
         824   824   824                                    PRN / # OF OBS
   R05  1030  1030  1030  1030  1030  1030  1030  1030  1030PRN / # OF OBS
        1015  1015  1015                                    PRN / # OF OBS
   R06   550   550   550   550   550   550    11    11    11PRN / # OF OBS
           1     1     1                                    PRN / # OF OBS
   R07   960   960   960   960   960   960   960   960   960PRN / # OF OBS
         956   956   956                                    PRN / # OF OBS
   R08   818   818   818   817   817   817   817   817   817PRN / # OF OBS
         811   811   811                                    PRN / # OF OBS
   R09   909   909   909   908   908   908   907   907   907PRN / # OF OBS
         890   890   890                                    PRN / # OF OBS
   R10  1015  1015  1015  1014  1014  1014    19    19    19PRN / # OF OBS
           1     1     1                                    PRN / # OF OBS
   R11  1105  1105  1105  1102  1102  1102  1105  1105  1105PRN / # OF OBS
        1096  1096  1096                                    PRN / # OF OBS
   R12   997   997   997   996   996   996   995   995   995PRN / # OF OBS
         980   980   980                                    PRN / # OF OBS
   R13   701   701   701   700   700   700   700   700   700PRN / # OF OBS
         679   679   679                                    PRN / # OF OBS
   R14   703   703   703   702   702   702   695   695   695PRN / # OF OBS
         684   684   684                                    PRN / # OF OBS
   R15   778   778   778   776   776   776   778   778   778PRN / # OF OBS
         773   773   773                                    PRN / # OF OBS
   R16   774   774   774   772   772   772   773   773   773PRN / # OF OBS
         760   760   760                                    PRN / # OF OBS
   R17   862   862   862   862   862   862   862   862   862PRN / # OF OBS
         858   858   858                                    PRN / # OF OBS
   R18   678   678   678   678   678   678   678   678   678PRN / # OF OBS
         665   665   665                                    PRN / # OF OBS
   R19   760   760   760   760   760   760   760   760   760PRN / # OF OBS
         744   744   744                                    PRN / # OF OBS
   R20   926   926   926   926   926   926   926   926   926PRN / # OF OBS
         878   878   878                                    PRN / # OF OBS
   R21   995   995   995   993   993   993   987   987   987PRN / # OF OBS
         955   955   955                                    PRN / # OF OBS
   R22   939   939   939   939   939   939   939   939   939PRN / # OF OBS
         938   938   938                                    PRN / # OF OBS
   R23   776   776   776   774   774   774    14    14    14PRN / # OF OBS
           0     0     0                                    PRN / # OF OBS
   R24   805   805   805   805   805   805   802   802   802PRN / # OF OBS
         779   779   779                                    PRN / # OF OBS
   R25   984   984   984   984   984   984   984   984   984PRN / # OF OBS
         981   981   981                                    PRN / # OF OBS
   E02   936   936   936   935   935   935   933   933   933PRN / # OF OBS
   E03   947   947   947   947   947   947   945   945   945PRN / # OF OBS
   E04   986   986   986   986   986   986   981   981   981PRN / # OF OBS
   E05  1095  1095  1095  1095  1095  1095  1095  1095  1095PRN / # OF OBS
   E07   733   733   733   733   733   733   732   732   732PRN / # OF OBS
   E08   715   715   715   715   715   715   709   709   709PRN / # OF OBS
   E09  1021  1021  1021  1021  1021  1021  1005  1005  1005PRN / # OF OBS
   E10  1247  1247  1247  1246  1246  1246  1233  1233  1233PRN / # OF OBS
   E11  1298  1298  1298  1298  1298  1298  1254  1254  1254PRN / # OF OBS
   E12  1053  1053  1053  1053  1053  1053  1036  1036  1036PRN / # OF OBS
   E13   172   172   172   172   172   172   172   172   172PRN / # OF OBS
   E15   798   798   798   798   798   798   786   786   786PRN / # OF OBS
   E19   702   702   702   702   702   702   655   655   655PRN / # OF OBS
   E21   261   261   261   261   261   261   249   249   249PRN / # OF OBS
   E24  1376  1376  1376  1375  1375  1375  1372  1372  1372PRN / # OF OBS
   E25  1280  1280  1280  1280  1280  1280  1273  1273  1273PRN / # OF OBS
   E26   356   356   356   356   356   356   355   355   355PRN / # OF OBS
   E27   583   583   583   583   583   583   582   582   582PRN / # OF OBS
   E30   974   974   974   974   974   974   974   974   974PRN / # OF OBS
   E31  1018  1018  1018  1018  1018  1018   985   985   985PRN / # OF OBS
   E33   694   694   694   694   694   694   688   688   688PRN / # OF OBS
   E34  1263  1263  1263  1263  1263  1263  1260  1260  1260PRN / # OF OBS
   E36  1286  1286  1286  1285  1285  1285  1247  1247  1247PRN / # OF OBS
This data is provided as a public service by NASA/JPL.      COMMENT
No warranty is expressed or implied regarding suitability   COMMENT
for use.  For further information, contact:                 COMMENT
ggnops at jpl dot nasa dot gov                              COMMENT
                                                            END OF HEADER
> 2023 11 23 00 00  0.0000000  0 24       -.000178853513
G01  24455575.627   128514929.843 6        40.250    24455576.147   128514927.839 4        25.000    24455578.087   100141506.014 6        37.500    24455578.287   100141504.999 4        25.000    24455573.497    95968936.659 4        25.000
G02  23070123.831   121234353.037 7        42.750    23070122.221   121234351.040 5        30.750                                                    23070120.521    94468334.916 5        30.750
G07  24375923.161   128096331.421 6        35.500    24375922.851   128096337.388 2        15.750    24375924.551    99815324.009 6        38.500    24375923.691    99815327.019 2        15.750
G08  21461843.727   112782790.943 8        48.500    21461843.627   112782775.935 6        40.750    21461846.407    87882695.132 8        50.250    21461845.567    87882690.128 6        40.750    21461838.167    84220916.156 6        37.000
G10  21374379.415   112323342.094 9        53.500    21374379.385   112323333.098 9        54.500    21374381.085    87524726.120 8        52.750    21374381.285    87524728.116 9        54.500    21374372.495    83877810.847 6        37.250
G16  21369627.330   112298179.878 8        49.000    21369626.610   112298173.881 7        41.750                                                    21369626.520    87505079.106 7        41.750
G18  24854758.618   130613197.198 6        38.250    24854758.788   130613114.212 4        28.500    24854759.318   101776665.818 7        45.000    24854759.298   101776572.802 4        28.500    24854757.698    97536012.275 5        31.000    24854758.398   130613226.224 6        39.750
G21  21746385.263   114278067.809 7        46.500    21746384.343   114278073.820 6        35.500                                                    21746383.893    89047860.926 6        35.500
G23  22451198.046   117981860.400 7        46.500    22451198.056   117981857.405 6        38.500    22451199.386    91933916.682 8        50.250    22451198.696    91933918.678 6        38.500    22451195.716    88103345.447 5        33.000    22451197.986   117981848.395 7        46.500
G26  23123602.248   121515420.123 6        39.750    23123601.528   121515410.137 6        38.000    23123605.228    94687353.942 6        41.250    23123604.948    94687349.944 6        38.000    23123597.498    90742051.379 4        26.000
G27  20243581.658   106380798.312 9        53.500    20243581.148   106380738.317 9        56.000    20243582.558    82894146.933 9        55.750    20243582.348    82894082.931 9        56.000    20243575.308    79440223.697 6        40.000
R04  22657745.006   121331447.563 7        45.500    22657745.136   121331197.574 7        44.750    22657752.246    94368721.255 7        46.500    22657752.186    94368712.254 7        44.750
R05  22173434.491   118529749.543 6        40.500    22173435.061   118529740.565 6        40.000    22173444.581    92189801.135 7        45.000    22173445.021    92189802.130 7        44.500
R09  23992808.563   128120165.729 6        38.000    23992808.433   128120168.717 6        36.000    23992823.513    99648990.323 7        41.750    23992823.783    99648979.329 6        39.500
R10  20931301.709   111575607.221 7        43.750    20931300.959   111575616.220 7        43.000
R11  20299591.472   108474894.810 8        52.750    20299591.952   108474871.819 8        51.000    20299599.342    84369359.794 8        51.250    20299599.432    84369344.784 8        50.500
R20  20327779.753   108701832.883 6        40.250    20327780.143   108701821.883 6        39.000    20327789.423    84545861.710 7        44.500    20327788.873    84545872.706 7        43.750
R21  20689771.505   110715195.196 8        50.000    20689771.495   110715190.205 8        49.750    20689780.105    86111847.446 8        49.750    20689779.825    86111830.440 8        48.750
R25  20428921.423   108974354.846 8        49.750    20428920.843   108974366.843 8        49.500    20428929.543    84757850.342 8        51.500    20428930.193    84757860.328 8        50.250
E12  27074127.643   142275525.489 6        38.500    27074131.703   109016309.862 6        40.500    27074122.583   106244709.540 3        18.750
E21  28219533.338   148294885.917 6        39.250    28219540.198   113628609.081 6        40.500    28219533.388   110739752.109 3        23.000
E26  24256956.117   127471708.205 8        51.750    24256959.837    97673257.388 9        55.000    24256950.817    95190057.107 5        33.500
E31  23916238.918   125680693.817 9        54.500    23916244.178    96300793.138 9        53.500    23916235.788    93852469.175 5        34.000
E33  23434254.373   123147863.191 8        49.750    23434257.523    94360055.925 9        55.750    23434249.393    91961073.334 6        35.500
> 2023 11 23 00 00 30.0000000  0 24       -.000178849243
G01  24435813.506   128411078.677 6        39.500    24435813.966   128411076.677 4        25.750    24435817.996   100060583.035 6        40.750    24435817.866   100060582.026 4        25.750    24435808.976    95891385.484 4        23.500
G02  23056550.615   121163030.260 7        42.000    23056550.135   121163028.257 5        31.250                                                    23056548.175    94412758.746 5        31.250
G07  24375420.297   128093671.133 6        37.750    24375418.407   128093677.118 3        17.500    24375418.527    99813251.081 6        38.500    24375419.087    99813254.055 3        17.500
G08  21450555.513   112723468.781 8        47.750    21450555.003   112723453.769 6        41.250    21450557.573    87836470.076 8        49.750    21450556.953    87836465.074 6        41.250    21450549.593    84176617.139 6        36.750
G10  21371178.215   112306518.266 8        53.250    21371177.875   112306509.267 9        54.500    21371179.485    87511616.655 8        52.500    21371179.595    87511618.648 9        54.500    21371171.525    83865247.597 6        37.250
G16  21384162.404   112374562.533 8        48.500    21384161.784   112374556.539 7        41.500                                                    21384161.774    87564598.038 7        41.500
G18  24873298.871   130710623.658 6        38.750    24873298.451   130710540.665 4        28.750    24873299.421   101852582.515 7        45.250    24873298.691   101852489.526 4        28.750    24873295.681    97608765.773 5        31.000    24873298.561   130710652.705 6        40.250
G21  21734932.462   114217880.099 7        45.250    21734930.892   114217886.094 6        35.750                                                    21734930.662    89000961.403 6        35.750
G23  22461432.803   118035640.310 7        47.000    22461432.243   118035637.329 6        38.500    22461432.823    91975823.114 8        50.000    22461432.593    91975825.110 6        38.500    22461429.203    88143505.779 5        33.000    22461432.233   118035628.312 7        47.000
G26  23143414.171   121619534.262 6        38.750    23143413.661   121619524.277 6        38.000    23143416.171    94768481.808 6        41.000    23143417.291    94768477.807 6        38.000    23143409.651    90819798.965 4        25.250
G27  20245118.228   106388873.273 8        53.250    20245117.898   106388813.275 9        56.000    20245119.368    82900439.092 9        55.500    20245119.008    82900375.090 9        56.000    20245112.048    79446253.676 6        40.250
R04  22661437.539   121351215.827 7        45.500    22661436.389   121350965.837 7        44.500    22661443.629    94384096.584 7        47.000    22661443.849    94384087.593 7        45.250
R05  22159251.658   118453925.795 6        41.250    22159251.028   118453916.784 6        40.500    22159260.748    92130827.124 7        44.750    22159260.528    92130828.113 7        44.500
R09  24018344.820   128256513.352 6        37.750    24018343.690   128256516.345 6        35.750    24018359.580    99755037.101 6        40.750    24018358.670    99755026.093 6        39.250
R10  20950772.019   111679398.190 7        43.250    20950771.709   111679407.195 7        42.750
R11  20296272.896   108457159.809 8        52.750    20296273.156   108457136.816 8        51.500    20296280.976    84355565.874 8        52.000    20296280.986    84355550.876 8        51.000
R20  20337505.029   108753843.674 6        40.250    20337505.509   108753832.680 6        39.250    20337517.279    84586314.537 7        45.000    20337515.459    84586325.532 7        43.750
R21  20681138.966   110669000.768 8        49.500    20681139.096   110668995.780 8        49.500    20681147.036    86075918.449 8        49.500    20681147.826    86075901.450 8        49.000
R25  20421093.108   108932600.507 8        49.750    20421093.868   108932612.506 8        49.500    20421101.098    84725374.753 8        50.750    20421101.588    84725384.747 8        49.500
E12  27060945.806   142206250.155 6        39.000    27060949.026   108963228.791 6        40.750    27060936.886   106192977.931 3        17.500
E21  28237270.631   148388098.253 6        37.750    28237278.841   113700031.191 7        41.750    28237272.411   110809358.344 3        22.500
E26  24266706.139   127522941.134 8        52.250    24266709.089    97712513.791 9        54.750    24266700.019    95228315.462 5        33.500
E31  23911780.738   125657264.561 9        54.750    23911785.688    96282840.844 9        53.500    23911777.318    93834973.302 5        33.750
E33  23431639.425   123134123.530 8        49.500    23431643.005    94349528.135 9        55.750    23431634.275    91950813.205 5        35.250
> 2023 11 23 00 01  0.0000000  0 24       -.000178849568
G01  24416079.241   128307372.936 6        37.250    24416079.251   128307370.937 4        24.500    24416081.131    99979773.436 6        39.750    24416083.441    99979772.419 4        24.500    24416075.861    95813942.944 4        24.750
G02  23043025.416   121091953.074 7        43.000    23043025.346   121091951.077 5        32.000                                                    23043022.156    94357373.934 5        32.000
G07  24375005.181   128091498.775 6        38.250    24375005.481   128091504.793 2        16.000    24375004.671    99811558.346 6        37.750    24375005.331    99811561.341 2        16.000
G08  21439305.745   112664349.830 7        47.000    21439305.395   112664334.822 6        41.250    21439307.395    87790403.379 8        49.750    21439306.595    87790398.364 6        41.250    21439299.565    84132469.875 6        37.000
G10  21368084.554   112290260.727 9        53.750    21368084.234   112290251.731 9        54.750    21368085.954    87498948.456 8        53.000    21368086.134    87498950.447 9        54.750    21368077.924    83853107.241 6        38.250
G16  21398775.213   112451353.448 8        48.750    21398774.693   112451347.451 7        41.750                                                    21398774.443    87624435.101 7        41.750
G18  24891837.251   130808040.534 6        38.500    24891836.071   130807957.535 4        28.750    24891837.321   101928491.760 7        45.500    24891837.231   101928398.753 4        28.750    24891833.841    97681512.120 5        30.750    24891836.901   130808069.547 6        40.000
G21  21723544.426   114158037.208 7        42.500    21723543.416   114158043.210 6        35.750                                                    21723543.116    88954330.605 6        35.750
G23  22471763.784   118089928.351 7        46.750    22471763.454   118089925.355 6        38.250    22471763.124    92018125.474 8        49.500    22471763.014    92018127.469 6        38.250    22471760.434    88184045.539 5        33.000    22471763.314   118089916.355 7        47.000
G26  23163258.724   121723815.625 6        39.000    23163257.464   121723805.624 6        37.500    23163261.204    94849739.935 7        42.000    23163261.254    94849735.938 6        37.500    23163253.884    90897671.329 4        26.250
G27  20246717.479   106397276.595 9        53.500    20246717.049   106397216.595 9        56.000    20246718.419    82906987.124 9        55.750    20246718.219    82906923.125 9        56.000    20246711.479    79452528.873 6        40.500
R04  22665270.727   121371743.323 7        46.500    22665271.117   121371493.327 7        45.500    22665277.737    94400062.419 7        47.250    22665277.317    94400053.423 7        45.500
R05  22145168.267   118378643.358 7        42.500    22145168.737   118378634.362 7        41.500    22145178.557    92072274.150 7        46.000    22145177.687    92072275.143 7        45.250
R09  24043869.684   128392815.131 6        37.500    24043869.464   128392818.140 6        35.750    24043884.124    99861048.233 6        39.750    24043885.234    99861037.228 6        38.750
R10  20970334.374   111783668.353 7        43.750    20970333.244   111783677.359 7        43.250
R11  20293108.559   108440249.189 8        53.000    20293108.429   108440226.200 8        51.500    20293115.939    84342413.179 8        51.250    20293115.959    84342398.172 8        50.500
R20  20347269.990   108806056.295 6        40.500    20347269.410   108806045.302 6        39.000    20347280.990    84626924.342 7        45.500    20347280.020    84626935.345 7        44.000
R21  20672558.762   110623084.867 8        49.250    20672558.432   110623079.866 8        49.250    20672567.192    86040206.088 8        49.000    20672566.352    86040189.082 8        48.500
R25  20413323.371   108891150.908 8        49.750    20413323.021   108891162.907 8        49.250    20413331.551    84693136.178 8        51.000    20413331.881    84693146.171 8        49.500
E12  27047790.656   142137121.659 6        38.500    27047793.386   108910260.237 6        40.250    27047786.346   106141355.964 3        19.250
E21  28255015.337   148481345.499 5        33.000    28255024.097   113771480.003 7        42.750    28255015.117   110878990.632 3        21.500
E26  24276480.325   127574306.913 8        52.000    24276483.785    97751871.978 9        54.750    24276474.365    95266673.034 5        33.000
E31  23907394.842   125634216.355 9        54.750    23907399.692    96265180.530 8        53.250    23907391.852    93817761.972 5        34.000
E33  23429073.295   123120636.403 8        49.750    23429076.495    94339193.848 9        55.750    23429067.755    91940741.645 5        35.000
> 2023 11 23 00 01 30.0000000  0 24       -.000178851616
G01  24396372.673   128203813.849 6        37.500    24396372.183   128203811.828 4        24.750    24396375.063    99899078.063 6        39.750    24396375.663    99899077.057 4        24.750    24396368.463    95736609.964 3        23.000
G02  23029547.627   121021122.025 7        42.750    23029546.057   121021120.032 5        31.750                                                    23029544.107    94302180.903 5        31.750
G07  24374684.558   128089813.543 6        37.000    24374684.828   128089819.492 2        15.250    24374684.388    99810245.104 6        36.500    24374682.898    99810248.091 2        15.250
G08  21428094.391   112605434.655 8        47.750    21428094.261   112605419.654 7        41.500    21428096.651    87744495.453 8        50.250    21428095.831    87744490.438 7        41.500    21428088.731    84088474.782 6        37.000
G10  21365098.564   112274569.982 9        53.500    21365098.494   112274560.986 9        55.000    21365100.024    87486721.910 8        52.750    21365100.424    87486723.902 9        55.000    21365092.144    83841390.150 6        38.250
G16  21413465.467   112528550.846 8        48.500    21413464.977   112528544.847 7        41.500                                                    21413464.547    87684588.899 7        41.500
G18  24910371.506   130905446.578 6        38.250    24910371.556   130905363.592 4        28.000    24910372.936   102004392.551 7        45.750    24910372.076   102004299.546 4        28.000    24910369.976    97754250.368 5        31.250    24910372.096   130905475.568 6        39.750
G21  21712222.075   114098539.532 7        43.750    21712221.515   114098545.528 6        36.500                                                    21712221.275    88907968.803 6        36.500
G23  22482190.333   118144722.582 7        46.750    22482190.193   118144719.593 6        37.500    22482189.843    92060822.264 8        48.750    22482189.963    92060824.260 6        37.500    22482186.683    88224963.314 5        32.500    22482190.293   118144710.588 7        46.750
G26  23183133.066   121828262.033 6        38.000    23183132.916   121828252.034 6        37.250    23183138.646    94931126.712 7        42.750    23183137.496    94931122.709 6        37.250    23183129.706    90975666.974 4        26.500
G27  20248378.994   106406008.586 8        53.250    20248378.724   106405948.587 9        56.000    20248380.414    82913791.270 9        56.000    20248379.944    82913727.269 9        56.000    20248372.994    79459049.509 6        40.250
R04  22669244.276   121393029.459 7        45.000    22669244.696   121392779.470 7        44.500    22669251.916    94416618.320 7        47.000    22669252.676    94416609.326 7        45.500
R05  22131188.353   118303906.040 7        44.000    22131188.063   118303897.052 7        42.250    22131197.943    92014145.180 7        45.750    22131197.133    92014146.180 7        45.000
R09  24069386.589   128529067.719 6        38.000    24069386.359   128529070.720 6        35.750    24069401.579    99967021.019 6        38.500    24069402.709    99967010.035 6        37.750
R10  20989983.730   111888413.416 7        44.250    20989983.320   111888422.411 7        43.250
R11  20290097.781   108424163.889 8        52.750    20290098.151   108424140.898 8        51.500    20290105.941    84329902.365 8        51.500    20290105.671    84329887.363 8        50.250
R20  20357069.437   108858469.226 6        40.750    20357071.517   108858458.235 6        39.250    20357082.317    84667689.935 7        45.250    20357081.307    84667700.935 7        44.000
R21  20664029.562   110577446.865 8        49.250    20664030.062   110577441.870 8        49.250    20664038.172    86004709.901 8        49.250    20664037.802    86004692.887 8        48.000
R25  20405609.554   108850005.571 8        49.750    20405609.724   108850017.576 8        49.750    20405618.164    84661134.266 8        51.000    20405617.934    84661144.261 8        49.250
E12  27034663.670   142068140.225 6        38.000    27034666.350   108857404.386 6        38.750    27034658.440   106089843.945 3        19.250
E21  28272766.758   148574626.131 6        40.250    28272774.838   113842954.359 7        42.750    28272767.668   110948647.756 3        22.500
E26  24286279.845   127625804.430 8        52.000    24286283.445    97791331.111 9        55.000    24286275.275    95305128.959 5        33.250
E31  23903081.648   125611550.144 9        54.750    23903086.438    96247812.917 8        53.250    23903078.548    93800835.924 5        34.500
E33  23426554.576   123107401.201 8        49.500    23426557.956    94329052.595 9        55.750    23426549.046    91930858.214 5        35.250
> 2023 11 23 00 02  0.0000000  0 24       -.000178851605
G01  24376692.857   128100402.576 6        37.250    24376693.307   128100400.573 4        26.250    24376698.247    99818497.933 7        41.500    24376696.847    99818496.933 4        26.250    24376689.657    95659387.320 3        21.000
G02  23016114.043   120950537.177 6        40.500    23016114.103   120950535.177 5        31.500                                                    23016112.503    94247179.745 5        31.500
G07  24374458.644   128088615.175 6        37.500    24374455.394   128088621.128 2        14.000    24374457.404    99809311.266 6        38.500    24374455.814    99809314.252 2        14.000
G08  21416922.422   112546724.825 8        49.000    21416922.122   112546709.817 7        41.500    21416924.002    87698747.519 8        49.500    21416923.572    87698742.511 7        41.500    21416916.382    84044633.026 6        37.250
G10  21362220.830   112259446.653 9        53.500    21362220.520   112259437.659 9        55.000    21362222.730    87474937.511 8        53.000    21362222.670    87474939.505 9        55.000    21362214.390    83830096.760 6        38.500
G16  21428232.990   112606152.753 8        48.250    21428232.610   112606146.751 7        41.750                                                    21428231.760    87745057.900 7        41.750
G18  24928905.246   131002840.551 6        36.750    24928905.206   131002757.558 4        27.500    24928906.796   102080283.919 7        45.750    24928905.746   102080190.928 4        27.500    24928903.476    97826979.615 5        31.000    24928905.806   131002869.546 6        38.500
G21  21700966.043   114039386.996 7        45.250    21700964.863   114039393.004 6        36.500                                                    21700964.743    88861875.943 6        36.500
G23  22492712.979   118200021.099 7        45.750    22492712.849   118200018.109 6        37.000    22492713.389    92103912.001 8        49.750    22492713.199    92103914.001 6        37.000    22492710.189    88266257.621 5        32.250    22492712.719   118200009.090 7        46.000
G26  23203039.862   121932871.147 6        38.500    23203039.892   121932861.148 6        37.000    23203043.962    95012640.279 6        41.250    23203043.422    95012636.277 6        37.000    23203035.322    91053784.157 4        23.750
G27  20250103.189   106415069.592 8        53.250    20250102.879   106415009.594 9        56.000    20250104.529    82920851.779 9        55.750    20250104.159    82920787.777 9        56.000    20250097.409    79465815.822 6        40.500
R04  22673361.339   121415073.554 7        44.500    22673361.409   121414823.558 7        44.000    22673368.559    94433763.751 7        46.000    22673368.809    94433754.757 7        44.500
R05  22117308.979   118229718.078 7        43.000    22117309.459   118229709.079 7        42.000    22117317.839    91956443.450 7        45.500    22117318.539    91956444.441 7        45.000
R09  24094894.385   128665267.556 6        39.500    24094893.525   128665270.554 6        37.750    24094908.145   100072952.863 6        38.000    24094908.605   100072941.856 6        36.750
R10  21009722.921   111993629.328 7        43.000    21009721.181   111993638.330 7        42.500
R11  20287243.296   108408904.787 8        53.250    20287243.336   108408881.792 8        52.250    20287250.436    84318034.166 8        51.750    20287250.406    84318019.161 8        50.250
R20  20366909.066   108911081.650 6        40.250    20366909.776   108911070.656 6        39.500    20366921.216    84708610.687 7        45.250    20366920.636    84708621.684 7        43.750
R21  20655553.052   110532086.369 8        49.250    20655553.382   110532081.375 8        49.500    20655561.182    85969429.498 8        49.250    20655560.732    85969412.490 8        48.000
R25  20397953.449   108809164.083 8        50.750    20397953.479   108809176.083 8        50.000    20397962.359    84629368.660 8        51.500    20397962.419    84629378.652 8        50.000
E12  27021565.260   141999306.019 6        37.750    27021567.480   108804661.313 6        38.750    27021560.160   106038441.823 3        19.500
E21  28290524.283   148667938.779 6        38.750    28290531.603   113914453.311 7        41.750    28290524.763   111018328.904 4        23.750
E26  24296104.937   127677432.517 8        52.500    24296107.877    97830890.277 9        55.000    24296099.557    95343682.380 5        33.250
E31  23898840.933   125589266.950 9        54.500    23898845.983    96230738.774 9        53.500    23898838.933    93784195.854 5        34.500
E33  23424083.793   123094417.237 8        49.500    23424087.233    94319103.854 9        55.750    23424078.623    91921162.424 6        35.500
> 2023 11 23 00 02 30.0000000  0 24       -.000178850616
G01  24357043.796   127997140.246 6        38.750    24357043.476   127997138.242 4        27.750    24357047.376    99738033.827 7        41.750    24357048.326    99738032.826 4        27.750    24357041.256    95582275.823 4        24.250
G02  23002729.971   120880199.110 7        41.500    23002729.051   120880197.112 5        32.000                                                    23002727.971    94192370.896 5        32.000
G07  24374322.609   128087902.909 6        39.250    24374322.099   128087908.892 2        14.750    24374320.599    99808756.253 6        36.500    24374317.819    99808759.268 2        14.750
G08  21405789.140   112488221.351 8        49.000    21405788.840   112488206.338 6        41.250    21405791.100    87653160.407 8        50.250    21405790.450    87653155.391 6        41.250    21405784.100    84000945.369 6        37.500
G10  21359451.064   112244891.354 9        53.750    21359450.634   112244882.359 9        55.000    21359452.374    87463595.725 8        53.000    21359452.724    87463597.719 9        55.000    21359444.284    83819227.549 6        38.250
G16  21443076.594   112684157.268 8        48.750    21443076.134   112684151.271 6        41.000                                                    21443075.154    87805840.632 6        41.000
G18  24947436.423   131100221.291 6        36.250    24947436.283   131100138.291 4        27.000    24947436.893   102156164.992 7        45.500    24947436.803   102156071.987 4        27.000    24947435.543    97899698.950 5        31.250    24947436.233   131100250.298 6        37.250
G21  21689775.286   113980579.768 7        46.750    21689774.056   113980585.775 6        36.750                                                    21689774.176    88816052.144 6        36.750
G23  22503331.664   118255821.964 7        46.000    22503331.474   118255818.968 6        37.250    22503331.814    92147393.185 8        49.750    22503331.494    92147395.179 6        37.250    22503328.124    88307927.121 5        32.000    22503331.034   118255809.953 7        46.250
G26  23222977.774   122037640.656 6        39.000    23222978.094   122037630.673 5        34.500    23222977.384    95094278.858 6        36.750    23222977.204    95094274.857 5        34.500    23222970.214    91132021.148 4        24.500
G27  20251890.482   106424460.054 9        53.750    20251889.812   106424400.056 9        56.000    20251891.292    82928169.015 9        55.750    20251891.042    82928105.014 9        56.000    20251884.262    79472828.174 6        40.750
R04  22677618.776   121437875.262 7        44.500    22677619.476   121437625.269 7        44.000    22677627.346    94451498.456 7        46.250    22677626.726    94451489.450 7        44.750
R05  22103533.422   118156083.786 7        43.500    22103534.482   118156074.792 7        42.000    22103543.202    91899172.362 7        44.750    22103543.422    91899173.358 7        44.750
R09  24120388.562   128801411.061 6        39.500    24120389.542   128801414.076 6        37.500    24120405.422   100178840.848 6        37.750    24120404.342   100178829.861 6        37.000
R10  21029547.915   112099311.874 7        43.250    21029547.165   112099320.879 7        42.500
R11  20284542.747   108394472.667 9        53.750    20284542.587   108394449.672 8        52.500    20284549.967    84306809.184 8        51.500    20284549.547    84306794.178 8        50.250
R20  20376786.411   108963891.500 6        40.750    20376784.981   108963880.504 6        39.500    20376796.251    84749684.995 7        45.000    20376795.651    84749695.990 7        43.750
R21  20647128.078   110487003.034 8        49.750    20647128.518   110486998.036 8        49.500    20647136.288    85934364.676 8        49.250    20647135.728    85934347.667 8        48.000
R25  20390354.514   108768625.839 8        50.750    20390354.144   108768637.838 8        50.000    20390362.364    84597838.921 8        51.500    20390363.124    84597848.913 8        50.000
E12  27008492.584   141930619.327 6        37.000    27008496.904   108752031.294 6        39.000    27008489.344   105987149.841 3        19.500
E21  28308286.117   148761281.981 6        37.750    28308294.677   113985975.703 7        42.250    28308288.187   111088032.877 4        23.750
E26  24305953.636   127729190.047 8        52.000    24305957.116    97870548.636 9        55.000    24305948.996    95382332.456 5        33.500
E31  23894673.800   125567367.744 9        54.500    23894678.670    96213958.864 9        53.500    23894670.490    93767842.554 5        34.500
E33  23421661.103   123081683.890 8        49.750    23421664.253    94309347.143 9        55.750    23421656.023    91911653.777 6        35.500
> 2023 11 23 00 03  0.0000000  0 24       -.000178849447
G01  24337422.183   127894028.112 6        40.250    24337422.253   127894026.115 4        28.250    24337426.563    99657686.771 6        41.000    24337425.883    99657685.771 4        28.250    24337418.333    95505276.577 4        26.250
G02  22989392.321   120810107.907 7        42.000    22989391.031   120810105.908 5        32.000                                                    22989390.431    94137754.404 5        32.000
G07  24374279.719   128087676.079 6        37.750    24374277.329   128087682.078 2        14.500    24374276.869    99808579.510 6        36.500    24374276.649    99808582.511 2        14.500
G08  21394695.888   112429925.436 8        49.000    21394695.628   112429910.432 7        41.500    21394698.218    87607735.022 8        50.250    21394697.278    87607730.014 7        41.500    21394690.458    83957412.721 6        37.500
G10  21356789.283   112230904.131 8        53.250    21356788.943   112230895.135 9        55.000    21356790.823    87452696.598 8        53.000    21356790.773    87452698.591 9        55.000    21356782.413    83808782.552 6        38.500
G16  21457996.721   112762562.438 8        48.500    21457995.761   112762556.439 6        40.750                                                    21457994.951    87866935.557 6        40.750
G18  24965964.962   131197587.526 6        38.000    24965964.712   131197504.547 4        28.750    24965965.292   102232034.743 7        45.500    24965964.772   102231941.747 4        28.750    24965962.952    97972407.470 5        31.250    24965964.722   131197616.532 6        38.750
G21  21678650.666   113922117.738 7        46.750    21678649.286   113922123.733 6        37.000                                                    21678649.196    88770497.363 6        37.000
G23  22514045.051   118312123.189 7        45.750    22514045.011   118312120.183 6        37.250    22514046.281    92191264.265 8        50.000    22514045.551    92191266.267 6        37.250    22514041.591    88349970.235 5        31.750    22514045.251   118312111.198 7        46.250
G26  23242944.821   122142568.371 6        39.750    23242944.361   122142558.378 5        34.750    23242945.561    95176040.768 6        36.750    23242945.541    95176036.749 5        34.750    23242940.011    91210376.237 4        25.250
G27  20253739.790   106434180.253 9        53.500    20253739.500   106434120.260 9        56.000    20253741.010    82935743.190 9        56.000    20253740.760    82935679.187 9        56.000    20253734.230    79480086.757 6        40.750
R04  22682018.797   121461433.756 7        45.000    22682019.167   121461183.758 7        43.750    22682025.447    94469821.730 7        46.250    22682026.417    94469812.725 7        45.500
R05  22089864.017   118083006.691 7        43.000    22089863.497   118082997.684 7        41.750    22089873.157    91842334.617 7        45.000    22089872.737    91842335.613 7        44.750
R09  24145874.425   128937494.824 6        39.750    24145875.205   128937497.819 6        37.000    24145894.405   100284682.374 6        40.500    24145892.855   100284671.374 6        38.750
R10  21049459.443   112205457.353 7        43.000    21049459.893   112205466.362 7        42.250
R11  20281995.966   108380868.305 8        53.250    20281996.326   108380845.309 8        51.750    20282003.556    84296228.007 8        52.000    20282003.916    84296213.006 8        50.250
R20  20386698.999   109016898.242 6        40.750    20386698.419   109016887.248 6        39.750    20386708.519    84790912.433 7        44.750    20386708.429    84790923.429 7        43.500
R21  20638755.012   110442196.264 8        49.500    20638755.152   110442191.266 8        49.250    20638762.632    85899514.976 8        49.250    20638762.922    85899497.964 8        48.000
R25  20382811.544   108728390.436 8        51.250    20382811.524   108728402.441 8        50.000    20382820.044    84566544.726 8        51.500    20382819.924    84566554.722 8        50.000
E12  26995450.664   141862080.408 6        37.750    26995454.384   108699514.504 6        38.250    26995447.134   105935968.249 3        20.500
E21  28326054.061   148854654.611 6        36.250    28326063.431   114057520.577 7        42.250    28326056.441   111157758.730 4        24.000
E26  24315827.190   127781075.917 8        52.000    24315830.560    97910305.332 9        54.750    24315822.880    95421078.412 5        33.500
E31  23890579.761   125545853.483 9        54.250    23890584.681    96197473.911 9        53.750    23890576.551    93751776.692 5        34.500
E33  23419285.423   123069200.457 8        49.750    23419288.573    94299781.913 9        55.750    23419280.493    91902331.709 6        35.500
> 2023 11 23 00 03 30.0000000  0 24       -.000178852039
G01  24317828.657   127791067.246 6        39.500    24317829.217   127791065.265 4        25.500    24317832.327    99577457.550 6        39.000    24317832.407    99577456.561 4        25.500    24317826.647    95428390.280 4        26.000
G02  22976100.893   120740263.882 7        42.250    22976100.853   120740261.881 5        32.250                                                    22976099.263    94083330.498 5        32.250
G07  24374327.705   128087934.223 6        37.250    24374325.805   128087940.246 2        11.750    24374326.305    99808780.648 6        35.750    24374326.235    99808783.647 2        11.750
G08  21383642.069   112371837.986 8        49.500    21383641.809   112371822.981 7        41.750    21383644.459    87562472.087 8        50.500    21383644.099    87562467.076 7        41.750    21383636.869    83914035.745 6        37.250
G10  21354235.946   112217486.034 9        53.750    21354235.626   112217477.037 9        55.000    21354237.036    87442240.953 8        52.750    21354237.456    87442242.942 9        55.000    21354229.346    83798762.561 6        38.500
G16  21472992.087   112841366.489 8        47.750    21472991.607   112841360.483 6        40.500                                                    21472990.997    87928341.289 6        40.500
G18  24984490.508   131294938.072 6        40.500    24984490.388   131294855.055 5        29.500    24984490.098   102307892.283 7        45.000    24984490.328   102307799.278 5        29.500    24984488.828    98045104.264 5        30.500    24984490.708   131294967.060 6        40.750
G21  21667591.054   113864001.130 8        47.500    21667590.594   113864007.137 6        36.500                                                    21667589.234    88725211.751 6        36.500
G23  22524854.071   118368922.871 7        45.500    22524853.841   118368919.888 6        37.000    22524853.521    92235523.752 8        48.500    22524853.461    92235525.758 6        37.000    22524850.291    88392385.608 5        31.750    22524853.931   118368910.882 7        46.500
G26  23262940.289   122247651.965 6        38.000    23262939.979   122247641.977 6        36.250    23262944.109    95257924.068 6        40.750    23262945.099    95257920.044 6        36.250    23262935.879    91288847.745 4        25.250
G27  20255652.411   106444230.616 8        53.250    20255651.981   106444170.613 9        56.000    20255653.431    82943574.626 9        56.000    20255653.301    82943510.623 9        56.000    20255646.461    79487591.883 6        40.750
R04  22686560.362   121485748.583 7        44.250    22686559.622   121485498.596 7        43.500    22686567.192    94488733.276 7        47.000    22686567.422    94488724.280 7        45.750
R05  22076297.344   118010490.706 7        42.750    22076298.634   118010481.700 7        42.000    22076307.364    91785933.325 7        45.250    22076306.734    91785934.323 7        44.500
R09  24171348.639   129073515.700 6        39.500    24171348.489   129073518.710 6        37.000    24171365.589   100390474.980 6        41.250    24171367.049   100390463.983 6        40.000
R10  21069458.448   112312061.302 7        43.500    21069458.728   112312070.300 7        42.500
R11  20279605.483   108368092.476 8        52.750    20279605.733   108368069.478 8        51.750    20279612.643    84286291.235 8        51.750    20279612.673    84286276.231 8        50.000
R20  20396646.241   109070099.134 6        40.750    20396646.801   109070088.139 6        39.750    20396657.221    84832290.888 7        44.750    20396656.931    84832301.882 7        43.500
R21  20630433.811   110397665.787 8        50.000    20630433.791   110397660.794 8        49.750    20630441.231    85864880.172 8        48.500    20630440.971    85864863.161 8        47.750
R25  20375325.572   108688457.398 8        51.750    20375325.522   108688469.397 8        50.500    20375333.702    84535485.714 8        51.500    20375334.022    84535495.706 8        50.250
E12  26982437.511   141793689.447 6        38.500    26982440.051   108647111.069 6        39.000    26982433.901   105884897.137 3        20.000
E21  28343828.514   148948055.186 5        33.750    28343837.134   114129086.781 7        42.750    28343830.064   111227505.452 3        22.500
E26  24325724.861   127833088.975 8        52.250    24325728.271    97950159.488 9        54.750    24325719.751    95459919.278 5        33.250
E31  23886559.248   125524725.094 9        54.250    23886564.048    96181284.620 9        53.750    23886556.048    93735999.008 5        34.500
E33  23416957.256   123056966.261 8        49.750    23416960.536    94290407.658 9        56.000    23416952.156    91893195.767 6        35.750
> 2023 11 23 00 04  0.0000000  0 24       -.000178848907
G01  24298264.232   127688258.728 6        37.500    24298264.392   127688256.718 4        23.750    24298267.282    99497347.087 6        38.250    24298268.172    99497346.073 4        23.750    24298262.252    95351617.766 4        26.250
G02  22962858.333   120670667.531 7        42.750    22962857.193   120670665.522 5        33.000                                                    22962854.673    94029099.559 5        33.000
G07  24374468.754   128088676.598 6        39.000    24374468.834   128088682.613 2        14.000    24374466.584    99809359.103 5        35.000    24374465.484    99809362.094 2        14.000
G08  21372628.243   112313960.071 8        49.250    21372628.123   112313945.062 7        41.750    21372630.123    87517372.418 8        50.000    21372629.683    87517367.411 7        41.750    21372622.473    83870815.233 6        37.000
G10  21351791.112   112204637.404 9        53.750    21351790.582   112204628.410 9        55.000    21351792.762    87432229.050 8        53.250    21351792.602    87432231.040 9        55.000    21351784.552    83789167.822 6        38.750
G16  21488063.784   112920567.454 8        47.500    21488063.064   112920561.459 6        41.000                                                    21488062.784    87990056.313 6        41.000
G18  25003013.053   131392271.728 6        41.250    25003012.423   131392188.728 5        29.500    25003013.413   102383736.682 7        45.500    25003012.643   102383643.670 5        29.500    25003010.193    98117788.507 5        30.250    25003013.303   131392300.751 7        42.000
G21  21656598.278   113806230.217 8        47.750    21656596.628   113806236.213 6        36.250                                                    21656595.238    88680195.458 6        36.250
G23  22535757.419   118426218.956 7        46.000    22535757.419   118426215.969 6        36.750    22535756.629    92280170.046 8        48.500    22535756.199    92280172.043 6        36.750    22535753.449    88435171.636 5        32.000    22535757.189   118426206.954 7        46.250
G26  23282967.297   122352889.209 6        38.000    23282965.647   122352879.211 6        36.000    23282969.717    95339927.038 6        41.000    23282970.417    95339923.029 6        36.000    23282962.647    91367433.930 4        25.250
G27  20257627.764   106454611.405 8        53.000    20257627.414   106454551.409 9        55.500    20257628.984    82951663.546 9        55.750    20257628.694    82951599.543 9        55.500    20257621.924    79495343.760 6        40.750
R04  22691239.989   121510818.790 7        43.000    22691240.759   121510568.793 7        42.750    22691248.849    94508232.326 7        46.750    22691248.939    94508223.336 7        45.000
R05  22062838.095   117938540.145 7        43.500    22062838.295   117938531.148 7        42.000    22062847.905    91729971.812 7        46.500    22062847.895    91729972.809 7        45.000
R09  24196808.675   129209470.162 6        38.500    24196809.615   129209473.162 6        37.000    24196828.335   100496215.908 7        42.500    24196828.075   100496204.901 6        40.250
R10  21089541.683   112419119.450 7        43.000    21089542.403   112419128.454 7        42.500
R11  20277370.209   108356145.802 8        53.250    20277370.149   108356122.809 8        52.000    20277376.939    84276999.374 8        51.500    20277376.539    84276984.370 8        50.000
R20  20406633.831   109123493.969 6        40.750    20406632.071   109123482.974 6        39.750    20406642.501    84873820.205 7        44.750    20406642.321    84873831.199 7        43.250
R21  20622163.495   110353410.965 8        49.250    20622163.535   110353405.975 8        49.000    20622171.905    85830459.757 8        49.500    20622171.425    85830442.751 8        48.500
R25  20367895.647   108648826.221 8        51.250    20367895.657   108648838.217 8        50.500    20367905.127    84504661.486 8        52.000    20367905.157    84504671.469 8        50.750
E12  26969450.763   141725446.769 6        38.750    26969453.903   108594821.255 6        38.750    26969446.353   105833936.719 3        19.500
E21  28361608.010   149041482.231 5        32.500    28361616.570   114200673.278 7        42.750    28361609.560   111297271.888 3        22.250
E26  24335646.876   127885228.128 8        52.000    24335649.986    97990110.261 9        54.500    24335641.576    95498854.390 5        33.250
E31  23882612.099   125503983.536 9        54.000    23882617.049    96165391.735 9        53.500    23882608.889    93720510.182 5        34.250
E33  23414676.506   123044980.708 8        49.500    23414679.716    94281223.927 9        55.500    23414671.936    91884245.554 6        35.750
> 2023 11 23 00 04 30.0000000  0 24       -.000178851733
G01  24278730.363   127585603.800 6        38.000    24278729.383   127585601.804 4        25.250    24278733.903    99417356.306 6        40.000    24278734.123    99417355.297 4        25.250    24278727.093    95274959.943 4        26.000
G02  22949661.012   120601319.097 7        42.500    22949660.282   120601317.108 5        33.000                                                    22949658.132    93975061.817 5        33.000
G07  24374703.253   128089902.559 6        38.750    24374702.083   128089908.573 2        13.500    24374701.323    99810314.364 5        35.250    24374700.673    99810317.357 2        13.500
G08  21361654.618   112256292.328 8        49.500    21361654.368   112256277.324 7        42.500    21361657.378    87472436.519 8        50.750    21361656.368    87472431.504 7        42.500    21361649.128    83827751.659 6        37.500
G10  21349454.493   112192358.500 9        53.750    21349453.883   112192349.506 9        55.250    21349455.643    87422661.074 8        53.000    21349456.103    87422663.070 9        55.250    21349447.953    83779998.512 6        39.000
G16  21503210.807   113000163.282 8        48.000    21503209.817   113000157.284 6        41.250                                                    21503209.507    88052079.018 6        41.250
G18  25021531.498   131489587.372 7        41.500    25021530.198   131489504.386 5        29.500    25021531.088   102459567.069 7        44.250    25021531.848   102459474.067 5        29.500    25021528.638    98190459.282 5        29.750    25021530.978   131489616.377 7        41.750
G21  21645669.518   113748804.822 7        47.000    21645669.288   113748810.823 6        36.000                                                    21645667.908    88635448.415 6        36.000
G23  22546754.084   118484009.491 7        45.000    22546754.404   118484006.495 6        37.000    22546754.984    92325201.607 8        49.750    22546754.854    92325203.623 6        37.000    22546751.634    88478326.898 5        31.750    22546754.094   118483997.499 7        45.500
G26  23303021.710   122458277.662 6        38.500    23303021.000   122458267.662 6        36.500    23303025.580    95422047.832 6        40.500    23303025.450    95422043.826 6        36.500    23303017.710    91446133.034 4        26.000
G27  20259666.592   106465323.031 9        53.500    20259665.872   106465263.034 9        56.000    20259667.512    82960010.256 9        56.000    20259667.042    82959946.253 9        56.000    20259660.202    79503342.688 6        40.750
R04  22696063.158   121536643.432 7        43.750    22696063.538   121536393.440 7        43.250    22696070.658    94528318.182 7        46.000    22696070.998    94528309.192 7        44.250
R05  22049484.031   117867158.985 7        44.250    22049485.791   117867149.986 7        43.250    22049494.731    91674453.141 7        46.250    22049493.931    91674454.146 7        45.000
R09  24222255.196   129345354.985 6        36.750    24222256.766   129345357.961 5        35.250    24222276.826   100601902.714 7        41.500    24222276.596   100601891.718 6        39.000
R10  21109711.302   112526627.705 7        43.000    21109710.812   112526636.694 7        42.500
R11  20275289.483   108345029.002 8        52.500    20275289.513   108345006.012 8        51.750    20275296.433    84268352.972 8        51.250    20275296.383    84268337.972 8        50.000
R20  20416652.400   109177080.850 6        40.500    20416653.150   109177069.859 6        39.000    20416663.720    84915498.876 7        45.000    20416663.670    84915509.873 7        43.750
R21  20613944.285   110309431.250 8        48.750    20613944.705   110309426.256 8        49.000    20613952.955    85796253.323 8        49.500    20613952.665    85796236.319 8        48.250
R25  20360522.814   108609496.379 8        51.250    20360522.774   108609508.372 8        50.250    20360532.454    84474071.621 8        52.000    20360531.954    84474081.609 8        50.750
E12  26956494.048   141657352.567 6        39.250    26956496.318   108542645.224 6        39.250    26956488.868   105783087.198 3        19.500
E21  28379390.359   149134934.510 5        30.250    28379399.809   114272279.151 6        41.000    28379392.559   111367057.291 3        21.750
E26  24345592.466   127937492.261 8        52.500    24345595.546    98030156.792 9        54.500    24345586.826    95537882.795 5        33.500
E31  23878738.921   125483629.759 9        54.000    23878743.941    96149795.981 9        53.750    23878736.121    93705310.931 5        34.500
E33  23412443.044   123033243.067 8        49.500    23412446.094    94272230.150 9        56.000    23412437.804    91875480.412 6        35.750
> 2023 11 23 00 05  0.0000000  0 25       -.000178851575
G01  24259224.851   127483103.575 6        38.500    24259225.051   127483101.575 4        26.250    24259228.081    99337486.063 6        39.750    24259229.291    99337485.059 4        26.250    24259221.251    95198417.652 4        25.000
G02  22936510.380   120532218.596 6        40.000    22936510.580   120532216.596 5        32.250                                                    22936509.240    93921217.280 5        32.250
G07  24375029.111   128091611.439 6        37.750    24375027.781   128091617.473 2        12.250    24375026.231    99811646.001 5        35.000    24375024.921    99811648.999 2        12.250
G08  21350721.206   112198836.439 8        49.500    21350720.736   112198821.430 7        42.250    21350723.276    87427665.694 8        50.250    21350722.556    87427660.682 7        42.250    21350715.636    83784846.289 6        37.750
G10  21347226.272   112180650.071 9        54.000    21347225.892   112180641.080 9        55.000    21347227.752    87413537.640 9        53.500    21347227.952    87413539.630 9        55.000    21347219.992    83771255.219 6        38.750
G16  21518432.037   113080152.218 8        48.000    21518431.397   113080146.219 6        41.000                                                    21518430.927    88114408.040 6        41.000
G18  25040045.226   131586883.777 6        40.250    25040045.086   131586800.786 4        28.250    25040046.266   102535382.445 7        43.750    25040045.956   102535289.438 4        28.250    25040042.776    98263115.707 5        30.000    25040045.106   131586912.766 6        41.000
G21  21634807.913   113691724.774 7        46.000    21634806.623   113691730.767 6        36.250                                                    21634806.223    88590970.459 6        36.250
G23  22557844.558   118542292.454 7        45.000    22557845.118   118542289.459 6        36.750    22557845.918    92370616.914 8        49.500    22557845.388    92370618.896 6        36.750    22557841.938    88521849.874 5        32.250    22557845.258   118542280.454 7        46.250
G26  23323104.958   122563815.165 6        39.000    23323104.268   122563805.173 6        35.750    23323107.298    95504284.823 6        39.000    23323108.098    95504280.813 6        35.750    23323099.438    91524943.491 4        24.750
G27  20261767.414   106476365.809 9        53.500    20261767.194   106476305.811 9        55.750    20261768.864    82968614.998 9        56.000    20261768.524    82968550.995 9        55.750    20261761.574    79511588.895 6        40.750
R04  22701027.887   121563222.084 7        42.750    22701026.567   121562972.089 7        42.500    22701036.257    94548990.511 7        46.500    22701035.487    94548981.508 7        44.250
R05  22036238.883   117796351.169 7        45.000    22036239.773   117796342.170 7        43.750    22036248.113    91619380.400 7        46.250    22036246.913    91619381.412 7        45.000
R09  24247690.957   129481166.645 6        35.500    24247690.237   129481169.644 5        34.750    24247710.747   100707532.742 6        40.750    24247711.317   100707521.743 6        38.750
R10  21129963.360   112634582.076 7        44.000    21129962.710   112634591.086 7        42.250
R11  20273364.187   108334742.641 8        52.250    20273364.517   108334719.647 8        51.250    20273371.617    84260352.464 8        51.000    20273370.997    84260337.457 8        50.000
R20  20426711.311   109230858.422 6        40.750    20426709.261   109230847.422 6        39.000    20426721.111    84957325.855 7        44.750    20426720.611    84957336.848 7        43.250
R21  20605777.073   110265726.604 8        49.250    20605777.803   110265721.616 8        49.250    20605785.733    85762260.837 8        49.750    20605785.673    85762243.831 8        48.750
R25  20353206.199   108570467.448 8        51.250    20353205.929   108570479.440 8        50.000    20353215.859    84443715.813 8        52.250    20353215.509    84443725.804 8        50.750
E12  26943564.379   141589406.958 6        39.750    26943566.349   108490583.041 6        39.000    26943558.079   105732348.622 3        18.750
E21  28397178.522   149228410.406 5        31.750    28397188.332   114343903.185 6        40.500    28397182.832   111436860.241 3        22.750
E24  27382870.412   143897943.83616        40.250
E26  24355561.306   127989880.290 8        52.250    24355564.736    98070298.260 9        54.750    24355556.586    95577003.708 5        33.500
E31  23874939.893   125463664.662 9        54.250    23874944.743    96134498.041 9        53.750    23874937.583    93690401.912 5        34.500
E33  23410256.494   123021752.711 8        49.500    23410259.554    94263425.856 9        55.500    23410251.494    91866899.973 6        35.500
> 2023 11 23 00 05 30.0000000  0 25       -.000178854527
G01  24239749.919   127380759.115 6        39.500    24239749.599   127380757.115 4        28.000    24239754.279    99257737.200 7        41.750    24239753.869    99257736.206 4        28.000    24239745.949    95121991.697 4        24.750
G02  22923408.284   120463366.099 6        40.000    22923408.024   120463364.097 5        32.500                                                    22923407.484    93867566.028 5        32.500
G07  24375441.810   128093802.638 5        34.000    24375443.980   128093808.650 1        10.000    24375443.450    99813353.328 5        35.000    24375442.630    99813356.369 1        10.000
G08  21339828.212   112141593.239 8        48.750    21339827.782   112141578.226 7        42.000    21339829.712    87383060.597 8        50.000    21339829.332    87383055.594 7        42.000    21339822.202    83742099.749 6        37.500
G10  21345106.902   112169512.036 8        53.250    21345106.482   112169503.038 9        55.250    21345107.992    87404858.651 8        53.250    21345108.162    87404860.646 9        55.250    21345100.132    83762937.853 6        39.250
G16  21533728.042   113160532.395 7        47.250    21533727.132   113160526.395 6        41.000                                                    21533726.812    88177041.932 6        41.000
G18  25058556.580   131684159.765 6        40.250    25058556.970   131684076.766 4        27.500    25058556.750   102611181.936 7        42.750    25058557.070   102611088.911 4        27.500    25058554.730    98335756.890 5        29.750    25058556.820   131684188.773 6        40.750
G21  21624011.182   113634990.597 7        44.500    21624010.362   113634996.599 6        37.000                                                    21624010.482    88546762.044 6        37.000
G23  22569029.462   118601065.809 7        44.500    22569028.972   118601062.802 6        36.750    22569029.832    92416414.322 8        49.000    22569029.302    92416416.300 6        36.750    22569026.432    88565739.071 5        31.750    22569028.902   118601053.808 7        45.500
G26  23343215.762   122669499.379 6        39.500    23343215.212   122669489.374 5        32.750    23343217.982    95586636.159 6        36.750    23343216.482    95586632.175 5        32.750    23343209.932    91603863.515 3        22.750
G27  20263931.772   106487740.127 8        53.250    20263931.502   106487680.123 9        56.000    20263933.462    82977478.086 9        56.250    20263933.082    82977414.085 9        56.000    20263925.812    79520082.697 6        40.500
R04  22706131.346   121590553.507 7        43.250    22706131.346   121590303.533 7        42.250    22706139.246    94570248.326 7        46.500    22706139.246    94570239.324 7        44.500
R05  22023100.255   117726120.364 7        44.500    22023101.135   117726111.368 7        43.000    22023110.075    91564756.488 7        46.500    22023109.825    91564757.491 7        45.750
R09  24273109.849   129616901.334 5        34.500    24273109.669   129616904.317 5        33.750    24273129.689   100813102.971 6        39.500    24273130.049   100813091.946 6        38.000
R10  21150296.930   112742978.239 7        42.750    21150297.410   112742987.235 7        42.000
R11  20271595.176   108325287.270 8        52.500    20271595.206   108325264.275 8        51.750    20271601.786    84252998.266 8        51.500    20271602.006    84252983.268 8        50.250
R20  20436801.413   109284825.159 6        40.250    20436801.773   109284814.167 6        39.250    20436812.533    84999299.974 7        44.750    20436812.143    84999310.976 7        43.500
R21  20597662.208   110222296.292 8        49.000    20597661.458   110222291.296 8        48.750    20597669.628    85728481.728 8        49.500    20597669.538    85728464.719 8        48.500
R25  20345945.509   108531738.865 8        51.750    20345945.939   108531750.861 8        50.500    20345955.289    84413593.580 8        52.250    20345955.359    84413603.572 8        50.500
E12  26930662.449   141521610.171 6        40.000    26930664.859   108438634.860 6        39.250    26930656.399   105681721.145 2        16.500
E21  28414972.118   149321908.835 5        32.750    28414980.928   114415544.335 6        41.000    28414974.488   111506679.953 4        24.250
E24  27367780.303   143818647.547 6        40.250    27367784.373   110198712.489 7        43.250    27367775.673   107397050.585 4        24.500
E26  24365553.991   128042391.072 8        52.500    24365557.121    98110533.787 9        54.750    24365548.571    95616216.296 5        33.500
E31  23871214.580   125444089.136 9        54.250    23871219.740    96119498.610 9        54.000    23871212.060    93675783.828 5        35.000
E33  23408117.068   123010508.931 8        49.500    23408120.088    94254810.496 9        55.750    23408111.578    91858503.624 6        35.500
> 2023 11 23 00 06  0.0000000  0 25       -.000178853696
G01  24220304.238   127278571.592 6        40.250    24220304.318   127278569.603 4        28.500    24220306.878    99178110.631 7        42.250    24220308.298    99178109.631 4        28.500    24220299.778    95045682.908 4        24.500
G02  22910354.921   120394761.874 6        41.000    22910353.171   120394759.882 5        33.250                                                    22910352.581    93814108.246 5        33.250
G07  24375952.071   128096474.955 5        34.750    24375951.391   128096480.926 1        11.250    24375946.931    99815435.584 5        30.000    24375948.971    99815438.650 1        11.250
G08  21328976.247   112084564.119 8        48.000    21328975.697   112084549.107 7        42.750    21328978.287    87338622.330 8        50.500    21328977.337    87338617.320 7        42.750    21328970.377    83699513.073 6        37.500
G10  21343096.073   112158945.212 9        53.500    21343095.793   112158936.217 9        55.250    21343097.413    87396624.777 8        53.000    21343097.493    87396626.770 9        55.250    21343089.003    83755047.066 6        39.000
G16  21549097.969   113241301.833 8        47.500    21549097.169   113241295.834 6        40.750                                                    21549096.609    88239979.139 6        40.750
G18  25077063.332   131781414.286 6        38.500    25077062.132   131781331.302 4        24.750    25077063.952   102686964.651 7        42.250    25077063.112   102686871.654 4        24.750    25077061.992    98408381.988 5        30.250    25077063.372   131781443.271 6        39.000
G21  21613280.957   113578602.157 7        42.250    21613279.887   113578608.159 6        37.250                                                    21613280.457    88502823.036 6        37.250
G23  22580306.309   118660327.504 7        44.250    22580306.479   118660324.501 6        36.250    22580306.779    92462592.242 8        48.000    22580305.639    92462594.230 6        36.250    22580303.049    88609992.937 5        32.000    22580306.459   118660315.500 7        46.000
G26  23363353.583   122775328.093 6        38.500    23363352.973   122775318.098 5        31.250    23363355.323    95669100.117 5        35.250    23363354.273    95669096.120 5        31.250    23363349.793    91682891.441 3        23.000
G27  20266159.701   106499446.263 8        53.000    20266159.071   106499386.266 9        55.750    20266160.991    82986599.748 9        56.250    20266160.651    82986535.746 9        55.750    20266153.621    79528824.278 6        40.750
R04  22711375.278   121618636.968 7        42.250    22711374.368   121618386.990 6        41.250    22711382.778    94592091.030 7        45.000    22711383.288    94592082.024 7        44.250
R05  22010071.353   117656470.552 7        44.250    22010070.873   117656461.563 7        43.500    22010079.873    91510584.451 7        46.500    22010080.503    91510585.456 7        45.500
R09  24298516.365   129752556.285 5        34.250    24298514.695   129752559.284 5        31.750    24298532.665   100918611.302 6        38.250    24298534.765   100918600.282 6        36.750
R10  21170713.737   112851812.163 7        42.250    21170714.077   112851821.170 7        41.500
R11  20269981.907   108316663.428 8        52.500    20269981.457   108316640.431 8        51.750    20269988.107    84246290.837 8        51.500    20269988.207    84246275.839 8        50.250
R20  20446928.753   109338980.061 6        40.750    20446929.583   109338969.071 6        39.500    20446939.953    85041420.449 7        44.500    20446938.953    85041431.440 7        43.250
R21  20589596.388   110179139.813 8        49.500    20589596.828   110179134.822 8        49.000    20589604.738    85694915.610 8        49.750    20589605.048    85694898.600 8        48.750
R25  20338741.813   108493310.189 8        51.750    20338741.723   108493322.190 8        50.500    20338750.573    84383704.642 8        51.500    20338750.513    84383714.632 8        50.000
E12  26917789.605   141453962.506 6        39.000    26917792.275   108386800.982 6        39.750    26917783.495   105631205.078 3        19.500
E21  28432767.380   149415428.245 5        31.500    28432777.200   114487201.631 6        40.500    28432770.330   111576515.389 3        22.500
E24  27352718.785   143739502.851 6        39.000    27352723.775   110138069.113 6        41.250    27352714.495   107337949.016 4        23.500
E26  24375569.948   128095023.514 8        52.500    24375572.718    98150862.544 9        54.500    24375564.998    95655519.729 5        33.000
E31  23867564.296   125424904.116 9        53.750    23867568.886    96104798.396 9        54.250    23867561.046    93661457.349 5        34.750
E33  23406023.985   122999511.041 8        49.250    23406027.315    94246383.542 9        56.000    23406019.065    91850290.914 6        35.500
> 2023 11 23 00 06 30.0000000  0 25       -.000178850157
G01  24200888.131   127176542.162 6        38.500    24200888.191   127176540.156 4        27.000    24200892.741    99098607.280 7        41.500    24200892.191    99098606.267 4        27.000    24200884.881    94969492.134 4        25.250
G02  22897347.498   120326406.475 7        42.000    22897346.618   120326404.472 5        33.500                                                    22897344.148    93760844.304 5        33.500
G07  24376552.728   128099627.916 6        35.750    24376553.218   128099633.912 2        11.500    24376550.068    99817892.529 5        33.000    24376550.608    99817895.503 2        11.500
G08  21318164.438   112027750.329 8        49.000    21318164.168   112027735.327 7        42.500    21318167.108    87294351.857 8        50.750    21318166.088    87294346.847 7        42.500    21318159.378    83657087.209 6        37.500
G10  21341193.938   112148949.614 9        54.000    21341193.538   112148940.618 9        55.500    21341195.088    87388836.004 8        53.000    21341195.428    87388838.002 9        55.500    21341187.578    83747582.829 6        39.000
G16  21564541.189   113322458.505 7        47.000    21564540.589   113322452.508 6        40.250                                                    21564539.989    88303218.091 6        40.250
G18  25095564.569   131878646.077 6        36.250    25095565.099   131878563.089 4        23.750    25095566.599   102762729.698 7        42.750    25095566.669   102762636.724 4        23.750    25095565.239    98480990.150 5        30.500    25095564.949   131878675.075 6        37.000
G21  21602616.238   113522559.291 7        45.000    21602615.568   113522565.292 6        37.000                                                    21602615.978    88459153.310 6        37.000
G23  22591676.367   118720075.489 7        45.000    22591676.607   118720072.486 6        36.250    22591676.927    92509149.104 8        49.000    22591676.787    92509151.113 6        36.250    22591672.607    88654609.922 5        31.750    22591676.117   118720063.496 7        46.000
G26  23383520.184   122881298.961 6        39.750    23383519.544   122881288.974 5        35.250    23383523.444    95751674.853 6        39.250    23383523.664    95751670.845 5        35.250    23383515.404    91762025.546 4        24.000
G27  20268450.337   106511484.577 8        53.250    20268450.137   106511424.579 9        55.750    20268451.767    82995980.234 9        56.250    20268451.447    82995916.230 9        55.750    20268444.347    79537813.907 6        40.750
R04  22716761.632   121647471.716 7        41.500    22716760.812   121647221.710 6        40.000    22716766.582    94614518.014 7        45.000    22716767.172    94614509.014 7        44.000
R05  21997150.889   117587405.466 7        45.000    21997151.179   117587396.476 7        43.250    21997159.519    91456867.198 7        46.000    21997160.059    91456868.193 7        45.500
R09  24323905.394   129888128.389 5        32.500    24323903.064   129888131.398 5        30.500    24323925.594   101024055.339 6        37.500    24323923.394   101024044.337 6        35.500
R10  21191212.955   112961079.101 7        43.250    21191211.825   112961088.102 7        41.750
R11  20268522.507   108308871.574 8        52.000    20268523.077   108308848.582 8        51.500    20268530.327    84240230.491 8        52.000    20268530.047    84240215.490 8        50.500
R20  20457091.500   109393321.680 6        40.500    20457090.970   109393310.680 6        39.250    20457102.680    85083686.135 7        44.750    20457101.650    85083697.129 7        43.250
R21  20581583.399   110136256.865 8        50.000    20581583.069   110136251.874 8        49.500    20581591.049    85661562.232 8        49.250    20581591.069    85661545.224 8        48.500
R25  20331593.036   108455180.872 8        51.250    20331593.806   108455192.872 8        50.750    20331601.816    84354048.517 8        50.500    20331601.596    84354058.505 8        49.500
E12  26904943.892   141386464.141 6        38.000    26904948.072   108335081.505 6        39.750    26904938.412   105580800.482 3        18.000
E21  28450567.736   149508967.362 5        32.000    28450577.186   114558873.981 7        41.750    28450571.216   111646365.507 4        24.750
E24  27337686.720   143660511.297 6        37.000    27337691.350   110077543.110 7        42.500    27337683.760   107278961.812 4        23.750
E26  24385608.184   128147776.532 8        52.250    24385611.504    98191283.676 9        54.500    24385602.834    95694913.206 5        33.000
E31  23863987.272   125406110.489 9        54.000    23863992.592    96090398.083 9        54.000    23863984.462    93647423.141 5        34.750
E33  23403977.996   122988758.372 8        49.750    23403980.976    94238144.493 9        55.750    23403972.746    91842261.342 6        36.000
> 2023 11 23 00 07  0.0000000  0 25       -.000178848541
G01  24181502.098   127074671.835 6        39.500    24181502.658   127074669.834 4        25.750    24181505.298    99019227.879 6        39.250    24181505.868    99019226.879 4        25.750    24181499.608    94893420.237 4        27.000
G02  22884387.291   120258299.952 7        42.500    22884386.451   120258297.951 5        33.500                                                    22884383.391    93707774.288 5        33.500
G07  24377245.764   128103260.990 6        36.500    24377244.454   128103266.964 1         9.250    24377243.104    99820723.399 5        32.750    24377240.714    99820726.444 1         9.250
G08  21307394.740   111971152.210 8        50.750    21307394.100   111971137.209 7        42.750    21307396.530    87250249.437 8        50.500    21307395.860    87250244.425 7        42.750    21307388.780    83614822.386 6        37.750
G10  21339400.288   112139525.512 9        53.750    21339400.038   112139516.517 9        55.500    21339402.108    87381492.568 9        53.500    21339402.228    87381494.556 9        55.500    21339394.088    83740545.367 6        39.250
G16  21580058.077   113404000.834 7        47.250    21580057.707   113403994.838 6        40.250                                                    21580057.167    88366757.553 6        40.250
G18  25114062.896   131975854.072 6        35.500    25114063.506   131975771.079 3        22.500    25114064.786   102838476.195 7        42.250    25114063.776   102838383.170 3        22.500    25114062.546    98553580.528 5        30.250    25114062.636   131975883.055 6        36.750
G21  21592017.687   113466861.699 8        47.750    21592016.817   113466867.710 6        36.750                                                    21592016.327    88415752.622 6        36.750
G23  22603138.011   118780307.697 7        44.500    22603137.981   118780304.705 6        36.000    22603138.871    92556083.301 8        49.000    22603138.681    92556085.288 6        36.000    22603134.801    88699588.496 5        32.250    22603137.741   118780295.691 7        45.500
G26  23403712.848   122987409.755 6        40.500    23403711.868   122987399.754 6        36.750    23403715.868    95834358.506 6        40.750    23403716.158    95834354.507 6        36.750    23403707.678    91841264.056 4        25.000
G27  20270804.499   106523855.439 9        53.500    20270804.269   106523795.439 9        54.250    20270805.959    83005619.848 9        56.250    20270805.599    83005555.843 9        54.250    20270798.439    79547051.868 6        40.500
R04  22722282.632   121677056.772 6        38.750    22722284.742   121676806.766 6        39.250    22722292.402    94637528.585 7        44.500    22722292.292    94637519.589 7        43.250
R05  21984341.867   117518928.810 7        45.750    21984341.827   117518919.818 7        44.500    21984351.217    91403607.578 7        47.000    21984350.997    91403608.578 7        45.750
R09  24349275.946   130023614.106 4        28.250    24349273.246   130023617.143 4        26.750    24349297.316   101129432.373 6        38.250    24349297.986   101129581.385 6        36.500
R10  21211791.960   113070775.117 7        43.500    21211791.320   113070784.122 7        41.750
R11  20267220.824   108301912.153 8        52.250    20267220.424   108301889.158 8        51.000    20267228.334    84234817.617 8        51.750    20267227.784    84234802.611 8        50.250
R20  20467287.136   109447848.220 6        40.250    20467288.056   109447837.229 6        39.500    20467298.996    85126095.666 7        44.000    20467298.036    85126106.660 7        42.750
R21  20573620.229   110093646.845 8        49.750    20573620.889   110093641.853 8        49.750    20573628.669    85628421.097 8        49.500    20573628.309    85628404.088 8        48.250
R25  20324501.822   108417350.450 8        51.750    20324501.892   108417362.448 8        51.000    20324510.272    84324624.865 8        51.250    20324510.562    84324634.856 8        49.750
E12  26892128.981   141319115.227 6        38.750    26892131.801   108283476.534 6        40.250    26892124.991   105530507.523 3        18.250
E21  28468372.282   149602524.737 5        32.250    28468381.202   114630560.262 7        42.500    28468375.262   111716229.213 3        23.000
E24  27322685.710   143581674.700 6        38.000    27322689.130   110017135.839 7        42.500    27322681.440   107220090.326 3        23.250
E26  24395669.337   128200649.021 8        52.250    24395672.987    98231796.350 9        54.750    24395664.927    95734395.878 5        33.000
E31  23860485.805   125387709.146 9        53.750    23860490.845    96076298.343 9        53.750    23860483.545    93633681.869 5        34.750
E33  23401978.412   122978250.236 8        49.750    23401981.252    94230092.803 9        55.750    23401973.892    91834414.351 6        35.500
> 2023 11 23 00 07 30.0000000  0 25       -.000178851028
G01  24162147.849   126972961.756 6        40.000    24162147.499   126972959.752 4        26.500    24162151.919    98939973.319 6        40.500    24162150.929    98939972.322 4        26.500    24162144.669    94817468.011 4        27.000
G02  22871474.092   120190442.498 7        41.500    22871473.942   120190440.491 5        34.000                                                    22871471.442    93654898.341 5        34.000
G07  24378027.001   128107373.056 6        37.750    24378025.451   128107379.045 2        13.250    24378024.451    99823927.628 6        35.500    24378025.561    99823930.619 2        13.250
G08  21296665.251   111914771.503 8        50.750    21296665.071   111914756.498 7        43.000    21296667.561    87206316.417 8        50.750    21296667.171    87206311.409 7        43.000    21296659.791    83572719.911 6        37.750
G10  21337716.222   112130673.293 9        53.750    21337715.772   112130664.294 9        55.500    21337717.572    87374594.733 9        53.500    21337717.542    87374596.726 9        55.500    21337709.582    83733934.952 6        39.500
G16  21595648.302   113485926.212 7        47.250    21595647.612   113485920.215 6        40.250                                                    21595647.142    88430595.501 6        40.250
G18  25132557.104   132073037.115 6        38.500    25132557.794   132072954.125 4        23.500    25132558.174   102914203.241 7        42.500    25132558.274   102914110.236 4        23.500    25132555.984    98626152.254 5        29.750    25132558.774   132073066.105 6        38.500
G21  21581485.473   113411509.986 8        48.500    21581484.283   113411515.992 6        36.750                                                    21581482.943    88372621.432 6        36.750
G23  22614691.304   118841022.040 7        43.500    22614690.734   118841019.048 5        35.000    22614691.714    92603393.193 8        47.750    22614691.504    92603395.171 5        35.000    22614688.274    88744927.126 5        32.750    22614690.864   118841010.036 7        45.000
G26  23423931.162   123093658.081 6        40.250    23423930.902   123093648.089 6        37.500    23423935.142    95917149.360 6        41.250    23423934.432    95917145.367 6        37.500    23423928.032    91920605.328 4        26.250
G27  20273222.224   106536559.137 9        53.500    20273221.674   106536499.137 8        51.250    20273223.374    83015518.807 9        56.250    20273223.154    83015454.807 8        51.250    20273215.984    79556538.372 6        40.750
R04  22727948.449   121707390.849 6        40.750    22727949.109   121707140.860 6        39.250    22727956.759    94661121.780 7        44.500    22727957.549    94661112.786 7        43.000
R05  21971641.469   117451044.578 7        45.250    21971641.939   117451035.592 7        44.250    21971650.979    91350808.762 7        47.000    21971651.099    91350809.758 7        45.750
R09  24374626.237   130159010.265 4        27.250    24374633.627   130159013.253 4        26.000    24374652.997   101234739.809 6        40.000
R10  21232449.728   113180896.411 7        42.750    21232449.128   113180905.406 7        41.750
R11  20266073.820   108295785.531 8        52.250    20266074.520   108295762.539 8        51.250    20266081.120    84230052.470 8        51.750    20266080.980    84230037.462 8        50.250
R20  20477519.310   109502558.950 6        40.500    20477519.720   109502547.956 6        39.000    20477531.010    85168648.449 7        44.750    20477529.960    85168659.449 7        43.500
R21  20565707.653   110051309.409 8        49.250    20565708.593   110051304.414 8        49.250    20565717.123    85595492.000 8        49.500    20565716.423    85595474.991 8        48.250
R25  20317465.887   108379818.364 8        52.000    20317466.197   108379830.356 8        50.750    20317473.557    84295433.233 8        51.250    20317474.237    84295443.223 8        49.750
E12  26879341.343   141251916.017 6        38.500    26879344.003   108231986.261 6        40.750    26879337.593   105480326.326 3        18.750
E21  28486177.906   149696098.998 4        28.750    28486188.356   114702259.455 6        41.250    28486181.136   111786105.482 3        22.750
E24  27307713.850   143502994.738 6        39.500    27307717.160   109956848.568 7        43.000    27307709.300   107161335.807 3        23.250
E26  24405753.340   128253639.945 8        51.750    24405756.710    98272399.774 9        54.750    24405748.150    95773967.049 5        33.000
E31  23857059.023   125369700.954 9        53.500    23857063.943    96062499.858 9        54.000    23857056.453    93620234.197 5        35.000
E33  23400025.112   122967985.962 8        49.500    23400028.132    94222227.972 9        56.000    23400020.062    91826749.473 6        35.500
> 2023 11 23 00 08  0.0000000  0 23       -.000178853955
G01  24142824.446   126871413.010 6        40.000    24142823.246   126871411.024 4        25.000    24142825.996    98860844.550 6        39.250    24142827.736    98860843.525 4        25.000    24142820.656    94741636.252 4        27.000
G02  22858608.827   120122834.302 7        42.000    22858607.987   120122832.309 5        34.000                                                    22858606.207    93602216.680 5        34.000
G07  24378900.075   128111963.662 6        38.000    24378899.875   128111969.669 2        14.250    24378899.325    99827504.754 6        37.250    24378899.615    99827507.742 2        14.250
G08  21285978.203   111858609.174 8        51.000    21285977.603   111858594.169 7        43.000    21285980.323    87162553.555 8        50.750    21285979.333    87162548.553 7        43.000    21285972.573    83530780.515 6        37.750
G10  21336140.460   112122393.545 9        53.500    21336140.140   112122384.549 9        55.500    21336141.750    87368142.993 8        53.250    21336141.890    87368144.989 9        55.500    21336133.890    83727752.040 6        39.250
G16  21611310.846   113568233.215 7        46.500    21611310.406   113568227.217 6        40.500                                                    21611309.746    88494730.817 6        40.500
G18  25151045.804   132170194.113 6        37.250    25151046.454   132170111.116 4        23.750    25151046.984   102989909.973 7        42.250    25151045.914   102989816.957 4        23.750    25151044.624    98698704.529 5        29.500    25151046.344   132170223.107 6        38.000
G21  21571017.691   113356503.944 8        48.250    21571016.951   113356509.942 6        36.750                                                    21571015.381    88329759.593 6        36.750
G23  22626335.724   118902216.403 7        43.250    22626335.404   118902213.408 5        34.250    22626335.554    92651077.084 7        46.250    22626335.424    92651079.065 5        34.250    22626334.184    88790624.202 5        32.750    22626335.954   118902204.405 7        45.000
G26  23444174.415   123200041.715 6        39.750    23444174.195   123200031.729 6        35.750    23444178.975    96000045.672 6        40.500    23444178.215    96000041.670 6        35.750    23444169.945    92000047.638 4        24.250
G27  20275703.008   106549596.042 9        53.500    20275702.488   106549536.043 8        53.000    20275704.338    83025677.421 9        56.500    20275703.958    83025613.421 8        53.000    20275697.098    79566273.702 6        40.750
R04  22733750.559   121738473.114 6        38.750    22733754.839   121738223.113 6        38.500    22733762.649    94685296.890 7        45.250    22733762.139    94685287.894 7        43.000
R05  21959054.275   117383756.599 7        46.000    21959054.845   117383747.603 7        44.750    21959063.505    91298473.677 7        46.500    21959063.815    91298474.682 7        46.000
R10  21253188.603   113291438.134 7        43.000    21253187.233   113291447.125 7        41.750
R11  20265083.236   108290492.054 8        52.250    20265083.576   108290469.061 8        51.000    20265090.636    84225935.306 8        52.000    20265091.006    84225920.304 8        50.500
R20  20487785.459   109557452.480 6        39.500    20487784.439   109557441.484 6        39.000    20487794.819    85211343.394 7        44.500    20487795.109    85211354.392 7        43.250
R21  20557847.393   110009244.074 8        49.750    20557847.563   110009239.076 8        49.250    20557855.043    85562774.535 8        49.000    20557855.283    85562757.523 8        48.250
R25  20310487.028   108342584.141 8        52.750    20310486.298   108342596.136 8        51.250    20310494.218    84266473.299 8        51.000    20310494.088    84266483.287 8        49.750
E12  26866582.007   141184866.670 6        39.750    26866585.057   108180610.838 6        40.250    26866575.567   105430257.040 3        19.750
E24  27292770.617   143424473.093 6        40.750    27292774.377   109896682.564 7        43.250    27292765.727   107102699.459 3        23.250
E26  24415859.245   128306748.181 8        52.000    24415862.825    98313093.090 9        54.500    24415853.835    95813625.770 5        32.250
E31  23853707.215   125352086.746 9        53.750    23853712.105    96049003.251 9        54.000    23853704.645    93607080.729 5        34.750
E33  23398117.784   122957964.813 8        49.500    23398121.384    94214549.429 9        56.000    23398112.984    91819266.154 6        35.750
> 2023 11 23 00 08 30.0000000  0 24       -.000178854337
G01  24123531.151   126770026.767 7        41.500    24123531.171   126770024.771 4        26.500    24123534.411    98781842.336 6        40.750    24123534.311    98781841.331 4        26.500    24123527.281    94665925.836 4        27.250
G02  22845790.477   120055475.681 6        40.750    22845788.967   120055473.673 5        34.000                                                    22845788.367    93549729.457 5        34.000
G07  24379864.861   128117031.525 6        37.000    24379863.091   128117037.506 2        13.500    24379863.711    99831453.727 6        36.250    24379863.381    99831456.694 2        13.500
G08  21275332.278   111802666.424 8        50.750    21275332.048   111802651.416 7        43.250    21275334.818    87118961.801 8        51.000    21275334.338    87118956.795 7        43.250    21275327.228    83489005.085 6        38.000
G10  21334673.619   112114686.048 9        53.500    21334673.329   112114677.050 9        55.500    21334675.039    87362137.169 9        53.500    21334675.069    87362139.160 9        55.500    21334667.359    83721996.458 6        39.000
G16  21627045.795   113650919.111 7        46.750    21627044.915   113650913.112 6        40.500                                                    21627044.195    88559161.370 6        40.500
G18  25169529.925   132267323.920 6        38.250    25169529.075   132267240.905 4        24.250    25169530.045   103065595.520 7        42.750    25169529.845   103065502.524 4        24.250    25169527.435    98771236.529 4        28.000    25169529.955   132267352.926 6        38.500
G21  21560616.353   113301843.729 8        48.750    21560615.443   113301849.727 6        37.250                                                    21560613.803    88287167.243 6        37.250
G23  22638071.610   118963888.718 7        43.250    22638072.050   118963885.718 5        34.500    22638072.040    92699133.393 7        46.500    22638071.510    92699135.390 5        34.500    22638068.590    88836678.178 5        32.750    22638071.520   118963876.723 7        44.750
G26  23464443.048   123306558.334 6        37.750    23464442.708   123306548.331 5        32.250    23464447.668    96083045.584 6        37.250    23464445.868    96083041.611 5        32.250    23464439.048    92079589.231 4        23.500
G27  20278247.232   106562966.484 9        53.500    20278246.692   106562906.482 9        55.250    20278248.542    83036095.936 9        56.250    20278248.112    83036031.934 9        55.250    20278241.312    79576258.112 6        40.750
R04  22739698.887   121770302.295 6        37.250    22739697.047   121770052.321 6        36.000    22739705.377    94710052.998 7        43.500    22739705.737    94710043.982 7        41.750
R05  21946577.887   117317068.795 7        44.500    21946577.927   117317059.806 7        43.750    21946588.787    91246605.408 7        46.750    21946587.917    91246606.409 7        45.750
R10  21274001.168   113402396.444 7        42.500    21274002.278   113402405.440 6        41.250
R11  20264248.646   108286031.947 8        51.750    20264248.636   108286008.956 8        50.500    20264255.996    84222466.328 8        51.750    20264255.896    84222451.322 8        50.500
R20  20498084.314   109612527.379 6        40.250    20498083.754   109612516.383 6        39.250    20498094.134    85254179.434 7        44.250    20498093.814    85254190.431 7        42.750
R21  20550038.062   109967450.447 8        50.250    20550037.862   109967445.453 8        49.750    20550043.812    85530268.382 8        48.250    20550044.622    85530251.378 8        47.750
R25  20303561.833   108305647.295 8        52.500    20303561.943   108305659.295 8        51.250    20303570.423    84237744.651 8        52.000    20303570.613    84237754.639 8        50.250
E12  26853851.763   141117967.421 6        40.500    26853854.593   108129350.408 6        40.250    26853844.423   105380299.871 3        19.750
E21  28521801.772   149883292.59214        28.750    28521811.642   114845692.49316        39.500    28521804.832   111925891.79913        21.250
E24  27277860.056   143346111.353 6        40.500    27277862.886   109836639.104 7        43.500    27277853.416   107044182.503 3        22.000
E26  24425988.009   128359972.644 8        52.500    24425990.919    98353875.467 9        54.250    24425981.619    95853371.298 5        32.000
E31  23850430.434   125334867.399 9        53.500    23850435.424    96035809.204 9        54.250    23850427.924    93594222.105 5        35.000
E33  23396257.174   122948186.150 8        49.500    23396260.284    94207056.690 9        56.000    23396252.344    91811963.904 6        35.500
> 2023 11 23 00 09  0.0000000  0 24       -.000178853890
G01  24104268.964   126668804.030 7        41.500    24104268.944   126668802.020 4        27.500    24104271.434    98702967.514 6        40.250    24104272.304    98702966.500 4        27.500    24104264.014    94590337.517 4        26.250
G02  22833019.637   119988366.860 7        41.750    22833018.927   119988364.866 5        34.750                                                    22833018.517    93497436.930 5        34.750
G07  24380919.537   128122575.761 6        36.750    24380918.097   128122581.806 2        12.000    24380918.567    99835773.901 6        36.000    24380917.717    99835776.874 2        12.000
G08  21264728.991   111746943.923 8        51.250    21264728.541   111746928.917 7        43.750    21264731.081    87075541.686 8        50.750    21264730.511    87075536.670 7        43.750    21264723.591    83447394.131 6        38.000
G10  21333316.040   112107551.487 9        53.750    21333315.570   112107542.491 9        55.250    21333317.460    87356577.780 9        53.500    21333317.720    87356579.774 9        55.250    21333309.560    83716668.709 6        39.000
G16  21642851.567   113733982.147 7        46.500    21642851.117   113733976.148 6        40.000                                                    21642851.077    88623885.799 6        40.000
G18  25188006.285   132364425.489 6        37.750    25188007.315   132364342.502 4        24.500    25188007.945   103141259.099 7        42.000    25188008.565   103141166.095 4        24.500    25188006.405    98843747.436 4        28.250    25188006.765   132364454.512 6        39.250
G21  21550280.015   113247528.886 8        48.250    21550279.245   113247534.884 6        37.000                                                    21550278.495    88244844.011 6        37.000
G23  22649898.622   119026036.827 7        44.000    22649898.812   119026033.828 6        35.750    22649899.312    92747560.475 8        47.750    22649899.812    92747562.476 6        35.750    22649894.892    88883087.478 5        32.000    22649898.672   119026024.830 7        46.000
G26  23484737.469   123413205.660 6        38.500    23484736.989   123413195.667 5        30.750    23484738.629    96166147.475 5        34.250    23484738.899    96166143.449 5        30.750    23484733.759    92159228.471 4        23.500
G27  20280855.058   106576670.761 9        53.500    20280854.388   106576610.764 9        55.750    20280856.588    83046774.581 9        56.500    20280856.098    83046710.580 9        55.750    20280849.358    79586491.809 6        40.500
R04  22745778.501   121802877.522 5        30.750    22745777.411   121802627.539 5        31.250    22745789.311    94735389.268 7        42.750    22745789.431    94735380.245 7        41.750
R05  21934216.981   117250984.503 7        46.500    21934216.961   117250975.512 7        45.000    21934226.921    91195206.566 8        47.500    21934226.431    91195207.554 7        45.750
R10  21294896.344   113513767.195 7        42.750    21294895.774   113513776.199 6        41.250
R11  20263570.321   108282405.515 8        52.250    20263570.181   108282382.522 8        50.500    20263577.021    84219645.757 8        51.500    20263576.951    84219630.754 8        50.000
R20  20508419.013   109667781.568 6        40.250    20508416.923   109667770.573 6        38.750    20508426.023    85297154.898 7        43.750    20508426.663    85297165.899 7        42.750
R21  20542278.204   109925927.813 8        49.750    20542278.074   109925922.822 8        49.250    20542285.714    85497973.018 8        49.000    20542285.244    85497956.011 8        47.750
R25  20296692.973   108269007.306 8        52.000    20296693.063   108269019.308 8        51.250    20296701.543    84209246.870 8        51.500    20296701.223    84209256.862 8        50.000
E12  26841150.465   141051218.338 6        40.000    26841152.215   108078205.015 6        39.750    26841144.575   105330454.804 3        19.750
E21  28539615.942   149976909.300 5        32.250    28539626.332   114917424.187 6        40.000    28539620.372   111995799.745 3        22.000
E24  27262978.143   143267911.259 6        38.250    27262981.993   109776719.499 7        43.250    27262974.053   106985786.189 3        23.000
E26  24436137.661   128413312.276 8        51.750    24436141.321    98394746.085 9        54.500    24436132.281    95893202.867 5        32.000
E31  23847229.193   125318043.739 9        53.500    23847234.073    96022918.343 9        54.250    23847227.073    93581658.997 5        34.750
E33  23394442.637   122938649.247 8        49.500    23394445.377    94199749.189 9        55.750    23394437.927    91804842.198 6        35.750
> 2023 11 23 00 09 30.0000000  0 24       -.000178852566
G01  24085038.147   126567745.907 6        40.750    24085037.447   126567743.901 4        27.250    24085041.837    98624221.009 7        42.250    24085041.997    98624219.990 4        27.250    24085035.017    94514872.081 4        26.000
G02  22820296.941   119921507.655 7        42.500    22820296.551   119921505.656 5        35.000                                                    22820295.391    93445338.873 5        35.000
G07  24382063.277   128128595.700 6        36.000    24382065.177   128128601.708 2        12.000    24382062.307    99840464.693 6        35.500    24382062.927    99840467.686 2        12.000
G08  21254167.496   111691443.295 8        51.000    21254166.946   111691428.285 7        43.750    21254169.686    87032294.448 8        50.750    21254169.136    87032289.435 7        43.750    21254162.026    83405948.859 6        38.000
G10  21332067.309   112100989.740 9        53.750    21332066.939   112100980.745 9        55.500    21332069.089    87351464.740 9        53.500    21332069.109    87351466.732 9        55.500    21332060.909    83711768.716 6        39.250
G16  21658729.546   113817420.460 7        46.250    21658728.466   113817414.458 6        39.750                                                    21658728.596    88688902.648 6        39.750
G18  25206480.203   132461497.772 6        37.000    25206480.013   132461414.776 3        23.000    25206480.693   103216899.839 7        41.500    25206480.263   103216806.850 3        23.000    25206478.213    98916236.475 4        27.250    25206479.793   132461526.768 6        38.750
G21  21540009.669   113193559.694 8        48.000    21540008.619   113193565.703 6        37.000                                                    21540008.619    88202790.131 6        37.000
G23  22661815.159   119088658.567 7        44.250    22661815.029   119088655.574 6        35.750    22661815.739    92796356.658 8        47.750    22661816.669    92796358.658 6        35.750    22661811.789    88929850.497 5        32.250    22661815.049   119088646.572 7        46.000
G26  23505057.265   123519981.370 6        40.250    23505057.145   123519971.377 5        34.250    23505060.605    96249349.375 6        37.500    23505059.335    96249345.341 5        34.250    23505051.505    92238963.592 3        23.000
G27  20283526.128   106590709.191 8        53.250    20283525.908   106590649.194 9        55.500    20283528.028    83057713.603 9        56.250    20283527.638    83057649.603 9        55.500    20283520.798    79596975.037 6        41.000
R04  22752003.792   121836197.332 6        35.500    22752002.952   121835947.341 5        34.000    22752010.842    94761304.675 7        42.250    22752011.632    94761295.680 6        41.250
R05  21921968.517   117185507.875 7        46.250    21921968.447   117185498.878 7        45.000    21921977.907    91144280.309 7        47.250    21921977.657    91144281.303 7        45.750
R10  21315863.745   113625545.788 7        41.500    21315864.015   113625554.800 6        40.750
R11  20263047.294   108279612.942 8        52.000    20263047.814   108279589.944 8        50.750    20263054.834    84217473.731 8        51.750    20263054.954    84217458.726 8        50.250
R20  20518782.796   109723214.623 6        39.500    20518783.006   109723203.632 6        38.750    20518793.826    85340269.498 7        43.500    20518792.436    85340280.501 7        42.250
R21  20534569.337   109884675.934 8        50.250    20534569.367   109884670.941 8        49.500    20534577.187    85465888.224 8        48.750    20534576.467    85465871.223 8        47.750
R25  20289879.063   108232663.629 8        51.500    20289879.133   108232675.632 8        50.750    20289887.763    84180979.588 8        51.750    20289888.293    84180989.578 8        50.250
E12  26828475.833   140984619.627 6        39.750    26828479.333   108027174.867 6        39.750    26828471.973   105280722.010 3        20.750
E21  28557432.370   150070537.300 5        29.750    28557443.550   114989164.577 6        40.750    28557437.910   112065716.115 3        22.500
E24  27248127.939   143189874.413 5        31.000    27248131.469   109716925.024 7        42.500    27248124.129   106927511.926 4        24.500
E26  24446309.832   128466765.990 8        52.000    24446313.202    98435704.114 9        54.250    24446304.532    95933119.559 5        32.000
E31  23844103.276   125301616.616 9        53.500    23844108.246    96010331.321 9        54.250    23844100.296    93569391.972 5        35.000
E33  23392673.698   122929353.416 8        49.500    23392676.558    94192626.412 9        55.750    23392668.458    91797900.513 6        36.000
> 2023 11 23 00 10  0.0000000  0 24       -.000178851773
G01  24065839.501   126466853.510 6        40.500    24065838.641   126466851.503 4        27.250    24065842.561    98545603.629 7        41.750    24065842.121    98545602.640 4        27.250    24065836.121    94439530.438 4        26.250
G02  22807622.230   119854898.546 7        42.750    22807621.200   119854896.550 5        34.500                                                    22807619.090    93393435.669 5        34.500
G07  24383300.106   128135090.104 6        36.500    24383300.666   128135096.111 2        14.500    24383299.706    99845525.305 6        37.500    24383300.066    99845528.283 2        14.500
G08  21243648.492   111636165.719 8        51.000    21243648.202   111636150.713 7        43.500    21243650.212    86989221.022 8        50.750    21243650.172    86989216.012 7        43.500    21243642.782    83364670.166 6        38.000
G10  21330927.885   112095000.872 9        53.500    21330927.515   112094991.875 9        55.500    21330929.425    87346798.093 9        53.500    21330929.525    87346800.086 9        55.500    21330920.835    83707296.514 6        39.250
G16  21674678.548   113901232.680 7        45.750    21674677.418   113901226.685 6        39.750                                                    21674677.688    88754210.858 6        39.750
G18  25224946.316   132558539.569 6        36.000    25224945.896   132558456.563 3        22.250    25224946.696   103292516.865 6        40.750    25224946.186   103292423.850 3        22.250    25224943.596    98988702.767 4        27.000    25224945.646   132558568.548 6        37.750
G21  21529805.700   113139935.910 8        48.250    21529804.800   113139941.912 6        37.250                                                    21529804.400    88161005.393 6        37.250
G23  22673821.704   119151751.816 7        44.000    22673820.934   119151748.825 5        35.000    22673821.454    92845520.224 7        47.000    22673821.874    92845522.219 5        35.000    22673819.414    88976965.561 5        33.500    22673821.274   119151739.820 7        45.750
G26  23525399.771   123626883.250 6        40.500    23525399.931   123626873.252 6        36.750    23525403.381    96332649.504 6        39.250    23525403.441    96332645.495 6        36.750    23525396.941    92318792.901 4        25.000
G27  20286261.526   106605082.144 8        53.250    20286261.076   106605022.144 9        54.500    20286263.296    83068913.306 9        56.500    20286262.776    83068849.303 9        54.500    20286256.136    79607708.085 6        40.750
R04  22758364.162   121870260.918 5        31.000    22758362.192   121870010.912 5        31.000    22758372.072    94787798.529 7        42.750    22758372.382    94787789.539 6        41.000
R05  21909832.942   117120642.312 7        46.000    21909833.312   117120633.324 7        44.750    21909842.712    91093829.369 7        46.750    21909842.652    91093830.364 7        45.500
R10  21336911.331   113737728.122 7        42.250    21336910.081   113737737.127 6        41.250
R11  20262681.298   108277654.343 8        52.000    20262681.058   108277631.352 8        50.500    20262688.788    84215950.393 8        52.000    20262688.618    84215935.386 8        50.250
R20  20529182.434   109778824.872 6        39.750    20529182.104   109778813.870 6        38.750    20529192.874    85383521.917 7        43.750    20529192.504    85383532.919 7        42.750
R21  20526910.255   109843694.194 8        49.000    20526910.135   109843689.191 8        49.000    20526919.355    85434013.565 8        48.750    20526918.315    85433996.554 8        48.250
R25  20283121.859   108196615.859 8        52.000    20283121.989   108196627.855 8        50.750    20283130.919    84152942.436 8        52.250    20283131.009    84152952.423 8        50.500
E12  26815831.271   140918171.514 6        39.500    26815834.261   107976260.099 6        39.750    26815825.961   105231101.729 3        21.000
E21  28575250.234   150164175.161 4        27.500    28575263.364   115060912.556 6        39.250    28575256.974   112135639.902 3        22.000
E24  27233309.718   143112002.535 5        34.500    27233313.078   109657257.006 7        42.500    27233306.408   106869360.903 4        25.500
E26  24456503.287   128520332.732 8        52.000    24456506.567    98476748.758 9        54.250    24456498.047    95973120.688 5        32.000
E31  23841052.882   125285586.837 8        53.250    23841057.832    95998048.754 9        54.250    23841049.912    93557421.671 5        34.750
E33  23390950.519   122920297.965 8        49.500    23390953.399    94185687.820 9        56.000    23390945.639    91791138.305 6        36.000
> 2023 11 23 00 10 30.0000000  0 24       -.000178855281
G01  24046671.102   126366127.915 6        39.750    24046670.732   126366125.921 4        26.750    24046674.552    98467116.227 7        42.000    24046673.762    98467115.201 4        26.750    24046666.862    94364313.371 4        26.000
G02  22794994.034   119788539.232 7        42.750    22794993.494   119788537.229 5        35.250                                                    22794991.914    93341727.129 5        35.250
G07  24384624.379   128142058.790 5        35.000    24384625.679   128142064.790 2        13.250    24384625.759    99850955.437 6        36.250    24384625.029    99850958.403 2        13.250
G08  21233171.990   111581111.627 8        50.750    21233171.430   111581096.622 7        43.750    21233174.670    86946321.745 8        51.500    21233173.570    86946316.733 7        43.750    21233166.010    83323558.353 6        38.000
G10  21329897.468   112089585.517 9        54.000    21329896.988   112089576.524 9        55.250    21329898.628    87342578.346 9        53.500    21329898.628    87342580.340 9        55.250    21329890.678    83703252.593 6        39.500
G16  21690697.811   113985416.109 7        45.250    21690697.221   113985410.108 6        39.750                                                    21690697.241    88819808.321 6        39.750
G18  25243406.872   132655549.951 6        35.750    25243406.422   132655466.919 3        19.500    25243407.012   103368109.296 6        39.250    25243405.912   103368016.285 3        19.500    25243404.142    99061145.547 3        22.500    25243406.632   132655578.903 6        37.750
G21  21519667.482   113086657.711 8        48.750    21519666.402   113086663.714 6        38.000                                                    21519665.982    88119489.947 6        38.000
G23  22685917.175   119215314.411 7        44.000    22685917.075   119215311.418 5        34.250    22685915.865    92895049.504 7        45.750    22685915.945    92895051.497 5        34.250    22685914.495    89024431.129 5        33.250    22685916.935   119215302.408 7        45.750
G26  23545765.688   123733908.885 6        39.750    23545766.508   123733898.896 6        37.250    23545769.598    96416046.060 6        40.250    23545770.378    96416042.068 6        37.250    23545762.678    92398714.621 4        25.250
G27  20289060.737   106619789.908 9        53.750    20289059.977   106619729.908 8        49.250    20289061.867    83080373.894 9        56.250    20289061.557    83080309.895 8        49.250    20289054.297    79618691.148 6        40.750
R04  22764867.347   121905066.49415        33.750    22764860.407   121904816.47715        29.750    22764871.637    94814869.60017        42.500    22764871.707    94814860.61116        41.000
R05  21897813.217   117056391.515 7        46.000    21897813.787   117056382.530 7        44.750    21897822.907    91043856.537 7        46.250    21897822.577    91043857.532 7        45.250
R10  21358030.379   113850309.851 7        43.000    21358029.819   113850318.847 7        41.500
R11  20262470.116   108276529.843 8        51.500    20262470.306   108276506.854 8        50.000    20262478.066    84215075.751 8        51.500    20262477.576    84215060.757 8        50.250
R20  20539614.877   109834611.699 6        39.500    20539614.407   109834600.712 6        38.500    20539623.787    85426911.672 7        43.500    20539624.937    85426922.666 7        42.250
R21  20519303.327   109802982.176 8        50.250    20519302.837   109802977.182 8        49.750    20519310.507    85402348.676 8        48.500    20519310.197    85402331.663 8        48.000
R25  20276418.940   108160863.366 8        51.500    20276419.000   108160875.364 8        50.250    20276428.490    84125134.970 8        52.250    20276428.870    84125144.961 8        50.750
E12  26803215.136   140851874.132 6        39.500    26803218.116   107925460.850 6        39.500    26803210.246   105181594.001 3        21.000
E21  28593073.009   150257821.809 5        30.500    28593084.449   115132667.194 6        39.000    28593076.929   112205570.207 3        20.750
E24  27218523.017   143034297.351 6        40.000    27218526.147   109597716.653 7        42.750    27218518.857   106811334.281 4        25.000
E26  24466717.947   128574011.464 8        51.500    24466721.517    98517879.207 9        54.250    24466713.217    96013205.436 5        32.250
E31  23838078.260   125269955.184 8        53.000    23838083.130    95986071.245 9        54.250    23838075.570    93545748.686 5        35.000
E33  23389272.579   122911482.150 8        49.250    23389275.819    94178932.850 9        56.000    23389267.919    91784555.076 6        35.750
> 2023 11 23 00 11  0.0000000  0 23       -.000178854826
G01  24027536.082   126265570.170 6        41.000    24027535.552   126265568.167 4        27.500    24027539.002    98388759.589 7        42.000    24027539.262    98388758.577 4        27.500    24027531.952    94289221.590 4        25.500
G02  22782414.635   119722430.338 7        42.500    22782413.265   119722428.327 5        34.750                                                    22782411.565    93290213.708 5        34.750
G07  24386041.555   128149500.380 5        34.500    24386041.865   128149506.356 2        14.750    24386043.085    99856753.995 6        39.250    24386043.005    99856756.996 2        14.750
G08  21222738.564   111526282.909 8        50.250    21222738.244   111526267.900 7        44.250    21222740.514    86903598.067 8        51.500    21222739.844    86903593.061 7        44.250    21222733.054    83282614.846 6        38.250
G10  21328975.970   112084743.795 9        53.500    21328975.580   112084734.796 9        55.500    21328976.990    87338805.581 9        53.500    21328977.290    87338807.576 9        55.500    21328969.140    83699637.029 6        39.250
G16  21706788.363   114069968.438 7        45.750    21706787.483   114069962.428 6        39.500                                                    21706786.893    88885693.229 6        39.500
G18  25261860.228   132752527.604 5        33.750    25261860.288   132752444.638 3        17.500    25261860.258   103443676.379 6        38.500    25261860.448   103443583.350 3        17.500    25261858.208    99133563.972 3        22.750    25261859.428   132752556.601 6        36.500
G21  21509594.579   113033724.869 7        47.250    21509593.809   113033730.867 6        38.500                                                    21509593.199    88078243.592 6        38.500
G23  22698101.574   119279344.153 7        44.500    22698101.924   119279341.169 5        33.500    22698100.924    92944942.804 7        45.250    22698099.824    92944944.782 5        33.500    22698098.944    89072245.556 5        32.500    22698101.694   119279332.164 7        46.250
G26  23566154.494   123841056.068 6        37.250    23566154.644   123841046.090 5        35.250    23566160.074    96499537.336 6        40.500    23566159.834    96499533.330 5        35.250    23566151.314    92478727.116 4        24.500
G27  20291922.744   106634832.758 9        53.500    20291922.484   106634772.763 7        44.000    20291924.554    83092095.597 9        56.500    20291924.034    83092031.595 7        44.000    20291916.894    79629924.443 6        40.500
R05  21885909.334   116992759.258 7        45.750    21885910.124   116992750.267 7        44.750    21885919.234    90994364.782 7        47.250    21885919.684    90994365.787 7        46.000
R10  21379223.827   113963286.930 7        42.750    21379224.707   113963295.923 7        41.500
R11  20262416.285   108276239.552 8        50.250    20262416.255   108276216.559 8        49.000    20262423.075    84214849.963 8        50.000    20262422.995    84214834.961 8        49.000
R20  20550079.862   109890573.267 6        40.000    20550079.962   109890562.267 6        38.500    20550091.612    85470437.317 7        43.250    20550089.802    85470448.320 7        42.000
R21  20511745.250   109762539.668 8        50.250    20511744.930   109762534.676 8        50.000    20511753.900    85370893.410 8        49.750    20511753.360    85370876.398 8        48.750
R25  20269771.576   108125405.750 8        51.250    20269771.836   108125417.747 8        50.500    20269781.586    84097556.831 8        52.500    20269781.476    84097566.823 8        50.750
E12  26790628.250   140785727.682 6        39.250    26790630.770   107874777.225 6        40.000    26790621.900   105132198.948 3        20.500
E21  28610891.484   150351475.691 3        22.000    28610906.714   115204427.284 6        36.750    28610899.764   112275505.854 3        19.750
E24  27203769.348   142956760.583 7        41.750    27203771.938   109538305.312 7        43.000    27203764.888   106753433.420 4        25.000
E26  24476953.701   128627801.116 8        51.500    24476957.211    98559094.645 9        54.250    24476948.421    96053373.048 5        32.250
E31  23835179.537   125254722.465 8        53.250    23835184.387    95974399.416 9        54.250    23835176.747    93534373.582 5        34.750
E33  23387640.462   122902905.285 8        49.250    23387643.582    94172360.985 9        56.000    23387635.452    91778150.294 6        35.750
> 2023 11 23 00 11 30.0000000  0 22       -.000178851410
G01  24008431.284   126165181.357 6        40.500    24008432.254   126165179.358 4        26.000    24008435.574    98310534.601 7        41.500    24008435.344    98310533.587 4        26.000    24008428.814    94214255.984 4        26.250
G02  22769880.809   119656572.278 6        41.250    22769880.009   119656570.280 5        33.500                                                    22769879.229    93238895.767 5        33.500
G07  24387552.293   128157413.960 6        38.750    24387548.753   128157419.919 2        13.750    24387547.693    99862920.409 6        37.250    24387548.713    99862923.384 2        13.750
G08  21212348.022   111471680.576 8        51.250    21212347.912   111471665.571 7        44.250    21212350.352    86861050.802 8        51.750    21212349.542    86861045.799 7        44.250    21212342.452    83241840.388 6        38.500
G10  21328163.579   112080475.341 9        54.000    21328163.199   112080466.337 9        55.250    21328164.959    87335479.524 9        53.500    21328165.049    87335481.518 9        55.250    21328156.979    83696449.552 6        39.000
G16  21722947.689   114154888.231 7        46.000    21722946.729   114154882.231 6        39.250                                                    21722946.179    88951864.492 6        39.250
G18  25280305.493   132849471.770 5        29.500    25280307.963   132849388.783 2        14.750    25280308.763   103519217.235 6        36.750    25280308.923   103519124.249 2        14.750    25280305.783    99205957.352 3        20.250    25280306.143   132849500.726 5        34.250
G21  21499587.690   112981137.018 8        48.250    21499586.570   112981143.021 6        37.750                                                    21499585.440    88037266.075 6        37.750
G23  22710374.591   119343838.892 7        43.750    22710374.561   119343835.896 5        33.250    22710373.621    92995198.427 7        44.750    22710372.891    92995200.419 5        33.250    22710371.031    89120407.185 5        32.750    22710374.541   119343826.883 7        46.250
G26  23586566.580   123948322.565 6        37.000    23586567.000   123948312.572 5        33.000    23586571.650    96583121.514 6        38.500    23586570.790    96583117.538 5        33.000    23586563.240    92558828.677 4        24.250
G27  20294849.446   106650211.059 9        53.750    20294848.836   106650151.057 6        41.000    20294850.776    83104078.676 9        56.250    20294850.416    83104014.675 6        41.000    20294843.386    79641408.234 6        40.500
R05  21874122.708   116929749.014 7        45.750    21874122.728   116929740.017 7        45.000    21874132.028    90945356.839 8        47.750    21874132.168    90945357.839 7        46.000
R10  21400492.764   114076654.619 7        43.000    21400492.634   114076663.623 7        42.000
R11  20262518.027   108276783.371 8        51.500    20262517.797   108276760.385 8        50.000    20262525.567    84215272.946 8        51.500    20262525.447    84215257.940 8        50.250
R20  20560575.751   109946708.337 6        39.250    20560577.601   109946697.348 6        38.500    20560588.711    85514097.918 7        43.250    20560587.711    85514108.915 7        42.000
R21  20504238.083   109722366.158 8        50.000    20504237.823   109722361.160 8        50.000    20504245.613    85339647.339 8        49.250    20504245.463    85339630.327 8        48.250
R25  20263180.538   108090242.313 8        52.000    20263180.488   108090254.312 8        50.500    20263189.788    84070207.507 8        52.250    20263189.708    84070217.500 8        51.000
E12  26778069.793   140719732.235 6        39.000    26778072.903   107824209.310 6        40.250    26778064.433   105082916.695 3        20.250
E24  27189047.069   142879393.840 7        42.000    27189050.709   109479024.260 7        44.250    27189042.369   106695659.535 4        24.500
E26  24487210.449   128681700.625 8        51.500    24487213.789    98600394.261 9        54.000    24487205.689    96093622.677 5        31.750
E31  23832356.851   125239889.508 8        53.250    23832361.761    95963033.899 9        54.500    23832353.271    93523297.023 5        34.750
E33  23386053.515   122894566.637 8        49.250    23386056.965    94165971.651 9        56.000    23386048.505    91771923.423 6        36.000
> 2023 11 23 00 12  0.0000000  0 23       -.000178849429
G01  23989359.808   126064962.563 6        40.250    23989361.868   126064960.550 4        26.000    23989364.458    98232442.047 6        39.750    23989363.378    98232441.031 4        26.000    23989359.868    94139417.328 4        27.000
G02  22757396.283   119590964.689 7        41.750    22757395.043   119590962.698 5        33.250                                                    22757394.133    93187773.003 5        33.250
G07  24389146.832   128165798.221 6        40.000    24389144.422   128165804.203 2        13.000    24389145.002    99869453.621 6        38.000    24389143.062    99869456.595 2        13.000
G08  21202000.825   111417305.579 8        50.500    21202000.555   111417290.568 7        44.500    21202002.785    86818680.678 8        51.000    21202002.065    86818675.672 7        44.500    21201995.425    83201235.688 6        38.750
G10  21327460.734   112076780.403 9        54.250    21327460.214   112076771.405 9        55.250    21327461.974    87332600.366 9        53.750    21327462.114    87332602.359 9        55.250    21327453.554    83693690.377 6        39.000
G16  21739176.942   114240173.245 7        45.750    21739176.002   114240167.250 6        39.250                                                    21739175.392    89018320.341 6        39.250
G18  25298748.521   132946381.213 5        31.500    25298748.541   132946298.232 2        13.000    25298749.191   103594731.123 5        35.000    25298748.741   103594638.105 2        13.000    25298748.691    99278324.772 3        21.250    25298749.251   132946410.233 5        34.500
G21  21489645.547   112928894.474 7        45.000    21489644.287   112928900.470 6        36.250                                                    21489643.647    87996557.622 6        36.250
G23  22722735.474   119408796.374 7        44.000    22722735.454   119408793.377 5        33.500    22722734.704    93045814.615 7        44.250    22722734.164    93045816.621 5        33.500    22722732.754    89168914.390 5        33.250    22722735.434   119408784.374 7        46.000
G26  23607002.407   124055705.876 6        39.500    23607002.367   124055695.878 5        33.250    23607004.597    96666796.836 6        37.000    23607004.807    96666792.828 5        33.250    23606997.047    92639017.490 3        22.000
G27  20297839.699   106665925.103 9        53.750    20297839.429   106665865.110 6        40.500    20297841.109    83116323.385 9        56.500    20297840.859    83116259.382 6        40.500    20297833.689    79653142.745 6        40.750
R04  22785193.956   122013974.18415        29.500    22785188.836   122013680.23514        28.000    22785197.806    94899666.82316        36.250    22785199.486    94899500.82516        35.750
R05  21862452.230   116867364.525 7        46.000    21862452.130   116867355.525 7        45.000    21862461.210    90896835.637 7        47.250    21862461.630    90896836.625 7        46.250
R10  21421833.148   114190409.033 7        42.750    21421832.288   114190418.033 7        41.500
R11  20262775.457   108278161.324 8        51.250    20262775.837   108278138.332 8        50.000    20262783.377    84216344.667 8        52.250    20262783.297    84216329.663 8        50.500
R20  20571108.364   110003016.013 6        39.500    20571106.264   110003005.023 6        38.250    20571118.054    85557892.764 7        43.750    20571117.194    85557903.755 7        42.000
R21  20496780.018   109682460.974 8        49.750    20496780.538   109682455.982 8        49.750    20496788.038    85308609.991 8        49.250    20496788.448    85308592.988 8        48.500
R25  20256643.248   108055372.682 8        51.250    20256642.698   108055384.684 8        50.250    20256652.588    84043086.696 8        52.000    20256652.538    84043096.685 8        50.750
E12  26765540.326   140653887.926 6        39.500    26765543.276   107773757.190 6        40.750    26765534.256   105033747.250 3        20.250
E24  27174356.871   142802198.841 7        42.250    27174361.111   109419874.793 7        44.000    27174351.311   106638013.869 3        23.250
E26  24497488.084   128735708.945 8        51.500    24497491.394    98641777.250 9        53.750    24497483.184    96133953.578 5        31.000
E31  23829610.590   125225457.040 8        53.000    23829615.680    95951975.247 9        54.750    23829607.670    93512519.540 5        35.000
E33  23384511.877   122886465.509 8        49.250    23384515.317    94159764.308 9        56.000    23384507.377    91765873.865 6        35.750
